[
 {
   "BSN": "08S04",
   "Schulname": "Schule am Zwickauer Damm",
   "Strasse": "Zwickauer Damm 17-22",
   "PLZ": 12353,
   "Schulart": "Integrierte Sekundarschule",
   "lat": 52.422,
   "lng": 13.48315,
   "AlleLehrkraefte_2017": 30,
   "AlleQ_2017": "7 %",
   "AlleLehrkraefte_2018": 28,
   "AlleQS_2018": "11 %",
   "Q1_5_2018": "7 %",
   "Q6_x_2018": "",
   "S1_5_2018": "4 %",
   "S6_x_2018": "",
   "Brennpunktschule-2018": "x"
 },
 {
   "BSN": "08K11",
   "Schulname": "Alfred-Nobel-Schule",
   "Strasse": "Britzer Damm 164",
   "PLZ": 12347,
   "Schulart": "Integrierte Sekundarschule",
   "lat": 52.448,
   "lng": 13.43469,
   "AlleLehrkraefte_2017": 55,
   "AlleQ_2017": "4 %",
   "AlleLehrkraefte_2018": 58,
   "AlleQS_2018": "10 %",
   "Q1_5_2018": "",
   "Q6_x_2018": "10 %",
   "S1_5_2018": "",
   "S6_x_2018": "",
   "Brennpunktschule-2018": "x"
 },
 {
   "BSN": "07G22",
   "Schulname": "Paul-Klee-Grundschule",
   "Strasse": "Konradinstr. 15-17",
   "PLZ": 12105,
   "Schulart": "Grundschule",
   "lat": 52.454,
   "lng": 13.37538,
   "AlleLehrkraefte_2017": 47,
   "AlleQ_2017": "6 %",
   "AlleLehrkraefte_2018": 48,
   "AlleQS_2018": "6 %",
   "Q1_5_2018": "6 %",
   "Q6_x_2018": "",
   "S1_5_2018": "",
   "S6_x_2018": "",
   "Brennpunktschule-2018": ""
 },
 {
   "BSN": "04G20",
   "Schulname": "Katharina-Heinroth-Grundschule",
   "Strasse": "Münstersche Str. 15-17",
   "PLZ": 10709,
   "Schulart": "Grundschule",
   "lat": 52.494,
   "lng": 13.30619,
   "AlleLehrkraefte_2017": 40,
   "AlleQ_2017": "0 %",
   "AlleLehrkraefte_2018": 47,
   "AlleQS_2018": "6 %",
   "Q1_5_2018": "6 %",
   "Q6_x_2018": "",
   "S1_5_2018": "",
   "S6_x_2018": "",
   "Brennpunktschule-2018": "x"
 },
 {
   "BSN": "11G23",
   "Schulname": "Friedrichsfelder Grundschule",
   "Strasse": "Lincolnstr. 67",
   "PLZ": 10315,
   "Schulart": "Grundschule",
   "lat": 52.503,
   "lng": 13.50355,
   "AlleLehrkraefte_2017": 33,
   "AlleQ_2017": "9 %",
   "AlleLehrkraefte_2018": 38,
   "AlleQS_2018": "24 %",
   "Q1_5_2018": "",
   "Q6_x_2018": "24 %",
   "S1_5_2018": "",
   "S6_x_2018": "",
   "Brennpunktschule-2018": ""
 },
 {
   "BSN": "05G21",
   "Schulname": "Paul Moor Schule",
   "Strasse": "Adamstr. 24-25",
   "PLZ": 13595,
   "Schulart": "Grundschule",
   "lat": 52.521,
   "lng": 13.19029,
   "AlleLehrkraefte_2017": 33,
   "AlleQ_2017": "6 %",
   "AlleLehrkraefte_2018": 35,
   "AlleQS_2018": "6 %",
   "Q1_5_2018": "6 %",
   "Q6_x_2018": "",
   "S1_5_2018": "",
   "S6_x_2018": "",
   "Brennpunktschule-2018": ""
 },
 {
   "BSN": "12G30",
   "Schulname": "Reineke-Fuchs-Grundschule",
   "Strasse": "Foxweg 15",
   "PLZ": 13403,
   "Schulart": "Grundschule",
   "lat": 52.574,
   "lng": 13.30985,
   "AlleLehrkraefte_2017": 40,
   "AlleQ_2017": "5 %",
   "AlleLehrkraefte_2018": 42,
   "AlleQS_2018": "19 %",
   "Q1_5_2018": "",
   "Q6_x_2018": "17 %",
   "S1_5_2018": "2 %",
   "S6_x_2018": "",
   "Brennpunktschule-2018": "x"
 },
 {
   "BSN": "09G29",
   "Schulname": "Schmöckwitzer Insel-Schule (Grundschule)",
   "Strasse": "Adlergestell 776",
   "PLZ": 12527,
   "Schulart": "Grundschule",
   "lat": 52.376769,
   "lng": 13.647546,
   "AlleLehrkraefte_2017": 14,
   "AlleQ_2017": "7 %",
   "AlleLehrkraefte_2018": 14,
   "AlleQS_2018": "21 %",
   "Q1_5_2018": "14 %",
   "Q6_x_2018": "",
   "S1_5_2018": "7 %",
   "S6_x_2018": "",
   "Brennpunktschule-2018": ""
 },
 {
   "BSN": "07Y08",
   "Schulname": "Ulrich-von-Hutten-Gymnasium",
   "Strasse": "Rehagener Str. 35-37",
   "PLZ": 12307,
   "Schulart": "Gymnasium",
   "lat": 52.38563,
   "lng": 13.40388,
   "AlleLehrkraefte_2017": 64,
   "AlleQ_2017": "0 %",
   "AlleLehrkraefte_2018": null,
   "AlleQS_2018": "",
   "Q1_5_2018": "",
   "Q6_x_2018": "",
   "S1_5_2018": "",
   "S6_x_2018": "",
   "Brennpunktschule-2018": ""
 },
 {
   "BSN": "07G29",
   "Schulname": "Käthe-Kollwitz-Grundschule",
   "Strasse": "Mellener Str. 38-42",
   "PLZ": 12307,
   "Schulart": "Grundschule",
   "lat": 52.3862,
   "lng": 13.40487,
   "AlleLehrkraefte_2017": 40,
   "AlleQ_2017": "0 %",
   "AlleLehrkraefte_2018": null,
   "AlleQS_2018": "",
   "Q1_5_2018": "",
   "Q6_x_2018": "",
   "S1_5_2018": "",
   "S6_x_2018": "",
   "Brennpunktschule-2018": ""
 },
 {
   "BSN": "07G35",
   "Schulname": "Nahariya-Grundschule",
   "Strasse": "Nahariyastr. 13-17",
   "PLZ": 12309,
   "Schulart": "Grundschule",
   "lat": 52.39085,
   "lng": 13.41943,
   "AlleLehrkraefte_2017": 41,
   "AlleQ_2017": "5 %",
   "AlleLehrkraefte_2018": 44,
   "AlleQS_2018": "11 %",
   "Q1_5_2018": "11 %",
   "Q6_x_2018": "",
   "S1_5_2018": "",
   "S6_x_2018": "",
   "Brennpunktschule-2018": "x"
 },
 {
   "BSN": "07Y09",
   "Schulname": "Georg-Büchner-Gymnasium",
   "Strasse": "Lichtenrader Damm 224",
   "PLZ": 12305,
   "Schulart": "Gymnasium",
   "lat": 52.39186,
   "lng": 13.406604,
   "AlleLehrkraefte_2017": 50,
   "AlleQ_2017": "0 %",
   "AlleLehrkraefte_2018": 50,
   "AlleQS_2018": "2 %",
   "Q1_5_2018": "",
   "Q6_x_2018": "",
   "S1_5_2018": "2 %",
   "S6_x_2018": "",
   "Brennpunktschule-2018": ""
 },
 {
   "BSN": "07K02",
   "Schulname": "Carl-Zeiss-Schule",
   "Strasse": "Barnetstr. 12-14",
   "PLZ": 12305,
   "Schulart": "Integrierte Sekundarschule",
   "lat": 52.39571,
   "lng": 13.40258,
   "AlleLehrkraefte_2017": 92,
   "AlleQ_2017": "3 %",
   "AlleLehrkraefte_2018": null,
   "AlleQS_2018": "",
   "Q1_5_2018": "",
   "Q6_x_2018": "",
   "S1_5_2018": "",
   "S6_x_2018": "",
   "Brennpunktschule-2018": ""
 },
 {
   "BSN": "07G30",
   "Schulname": "Annedore-Leber-Grundschule",
   "Strasse": "Halker Zeile 137-149",
   "PLZ": 12305,
   "Schulart": "Grundschule",
   "lat": 52.39757,
   "lng": 13.40197,
   "AlleLehrkraefte_2017": 41,
   "AlleQ_2017": "7 %",
   "AlleLehrkraefte_2018": 45,
   "AlleQS_2018": "9 %",
   "Q1_5_2018": "7 %",
   "Q6_x_2018": "",
   "S1_5_2018": "2 %",
   "S6_x_2018": "",
   "Brennpunktschule-2018": ""
 },
 {
   "BSN": "07K04",
   "Schulname": "Theodor-Haubach-Schule",
   "Strasse": "Grimmstr. 9-11",
   "PLZ": 12305,
   "Schulart": "Integrierte Sekundarschule",
   "lat": 52.398399,
   "lng": 13.403988,
   "AlleLehrkraefte_2017": 36,
   "AlleQ_2017": "6 %",
   "AlleLehrkraefte_2018": 37,
   "AlleQS_2018": "8 %",
   "Q1_5_2018": "8 %",
   "Q6_x_2018": "",
   "S1_5_2018": "",
   "S6_x_2018": "",
   "Brennpunktschule-2018": "x"
 },
 {
   "BSN": "09Y04",
   "Schulname": "Anne-Frank-Gymnasium",
   "Strasse": "Uranusstr. 15 -17",
   "PLZ": 12524,
   "Schulart": "Gymnasium",
   "lat": 52.399327,
   "lng": 13.525296,
   "AlleLehrkraefte_2017": 65,
   "AlleQ_2017": "0 %",
   "AlleLehrkraefte_2018": 60,
   "AlleQS_2018": "2 %",
   "Q1_5_2018": "2 %",
   "Q6_x_2018": "",
   "S1_5_2018": "",
   "S6_x_2018": "",
   "Brennpunktschule-2018": ""
 },
 {
   "BSN": "07G26",
   "Schulname": "Grundschule im Taunusviertel",
   "Strasse": "Wiesbadener Str. 20",
   "PLZ": 12309,
   "Schulart": "Grundschule",
   "lat": 52.40019,
   "lng": 13.41799,
   "AlleLehrkraefte_2017": 24,
   "AlleQ_2017": "17 %",
   "AlleLehrkraefte_2018": 24,
   "AlleQS_2018": "21 %",
   "Q1_5_2018": "21 %",
   "Q6_x_2018": "",
   "S1_5_2018": "",
   "S6_x_2018": "",
   "Brennpunktschule-2018": ""
 },
 {
   "BSN": "08G37",
   "Schulname": "Rose-Oehmichen-Schule (Grundschule)",
   "Strasse": "Lieselotte-Berger-Str. 65",
   "PLZ": 12355,
   "Schulart": "Grundschule",
   "lat": 52.401126,
   "lng": 13.501995,
   "AlleLehrkraefte_2017": 18,
   "AlleQ_2017": "0 %",
   "AlleLehrkraefte_2018": null,
   "AlleQS_2018": "",
   "Q1_5_2018": "",
   "Q6_x_2018": "",
   "S1_5_2018": "",
   "S6_x_2018": "",
   "Brennpunktschule-2018": ""
 },
 {
   "BSN": "09K03",
   "Schulname": "Fritz-Kühn-Schule (Integrierte Sekundarschule)",
   "Strasse": "Dahmestr. 45",
   "PLZ": 12526,
   "Schulart": "Integrierte Sekundarschule",
   "lat": 52.40141,
   "lng": 13.5647,
   "AlleLehrkraefte_2017": 36,
   "AlleQ_2017": "8 %",
   "AlleLehrkraefte_2018": 34,
   "AlleQS_2018": "6 %",
   "Q1_5_2018": "6 %",
   "Q6_x_2018": "",
   "S1_5_2018": "",
   "S6_x_2018": "",
   "Brennpunktschule-2018": ""
 },
 {
   "BSN": "08Y06",
   "Schulname": "Hannah-Arendt-Gymnasium",
   "Strasse": "Elfriede-Kuhr-Str. 17",
   "PLZ": 12355,
   "Schulart": "Gymnasium",
   "lat": 52.40411,
   "lng": 13.508639,
   "AlleLehrkraefte_2017": 60,
   "AlleQ_2017": "3 %",
   "AlleLehrkraefte_2018": 61,
   "AlleQS_2018": "2 %",
   "Q1_5_2018": "2 %",
   "Q6_x_2018": "",
   "S1_5_2018": "",
   "S6_x_2018": "",
   "Brennpunktschule-2018": ""
 },
 {
   "BSN": "07G32",
   "Schulname": "Bruno-H.-Bürgel-Grundschule",
   "Strasse": "Rackebüller Weg 70",
   "PLZ": 12305,
   "Schulart": "Grundschule",
   "lat": 52.404902,
   "lng": 13.402536,
   "AlleLehrkraefte_2017": 33,
   "AlleQ_2017": "12 %",
   "AlleLehrkraefte_2018": 34,
   "AlleQS_2018": "12 %",
   "Q1_5_2018": "12 %",
   "Q6_x_2018": "",
   "S1_5_2018": "",
   "S6_x_2018": "",
   "Brennpunktschule-2018": ""
 },
 {
   "BSN": "09G11",
   "Schulname": "Schule am Pegasuseck (Grundschule)",
   "Strasse": "Pegasuseck 5",
   "PLZ": 12524,
   "Schulart": "Grundschule",
   "lat": 52.40638,
   "lng": 13.5294,
   "AlleLehrkraefte_2017": 29,
   "AlleQ_2017": "3 %",
   "AlleLehrkraefte_2018": 34,
   "AlleQS_2018": "12 %",
   "Q1_5_2018": "12 %",
   "Q6_x_2018": "",
   "S1_5_2018": "",
   "S6_x_2018": "",
   "Brennpunktschule-2018": "x"
 },
 {
   "BSN": "07K03",
   "Schulname": "Gustav-Heinemann-Schule",
   "Strasse": "Waldsassener Str. 62",
   "PLZ": 12279,
   "Schulart": "Integrierte Sekundarschule",
   "lat": 52.40662,
   "lng": 13.34754,
   "AlleLehrkraefte_2017": 107,
   "AlleQ_2017": "1 %",
   "AlleLehrkraefte_2018": 108,
   "AlleQS_2018": "3 %",
   "Q1_5_2018": "3 %",
   "Q6_x_2018": "",
   "S1_5_2018": "",
   "S6_x_2018": "",
   "Brennpunktschule-2018": ""
 },
 {
   "BSN": "09G14",
   "Schulname": "Schule am Buntzelberg (Grundschule)",
   "Strasse": "Schulzendorfer Str. 112",
   "PLZ": 12526,
   "Schulart": "Grundschule",
   "lat": 52.40671,
   "lng": 13.57427,
   "AlleLehrkraefte_2017": 29,
   "AlleQ_2017": "0 %",
   "AlleLehrkraefte_2018": null,
   "AlleQS_2018": "",
   "Q1_5_2018": "",
   "Q6_x_2018": "",
   "S1_5_2018": "",
   "S6_x_2018": "",
   "Brennpunktschule-2018": ""
 },
 {
   "BSN": "09G15",
   "Schulname": "Schule am Mohnweg (Grundschule)",
   "Strasse": "Mohnweg 20",
   "PLZ": 12524,
   "Schulart": "Grundschule",
   "lat": 52.40733,
   "lng": 13.53679,
   "AlleLehrkraefte_2017": 36,
   "AlleQ_2017": "8 %",
   "AlleLehrkraefte_2018": 37,
   "AlleQS_2018": "10 %",
   "Q1_5_2018": "5 %",
   "Q6_x_2018": "",
   "S1_5_2018": "5 %",
   "S6_x_2018": "",
   "Brennpunktschule-2018": ""
 },
 {
   "BSN": "09G13",
   "Schulname": "Schule am Altglienicker Wasserturm (Grundschule)",
   "Strasse": "Sachsenstr. 22",
   "PLZ": 12524,
   "Schulart": "Grundschule",
   "lat": 52.41079,
   "lng": 13.55406,
   "AlleLehrkraefte_2017": 15,
   "AlleQ_2017": "13 %",
   "AlleLehrkraefte_2018": 18,
   "AlleQS_2018": "17 %",
   "Q1_5_2018": "11 %",
   "Q6_x_2018": "",
   "S1_5_2018": "6 %",
   "S6_x_2018": "",
   "Brennpunktschule-2018": ""
 },
 {
   "BSN": "09S05",
   "Schulname": "Schule am Altglienicker Wasserturm (Förderzentrum)",
   "Strasse": "Sachsenstr. 22",
   "PLZ": 12524,
   "Schulart": "Förderschwerp.\"Lernen\"",
   "lat": 52.41134,
   "lng": 13.554156,
   "AlleLehrkraefte_2017": 7,
   "AlleQ_2017": "0 %",
   "AlleLehrkraefte_2018": null,
   "AlleQS_2018": "",
   "Q1_5_2018": "",
   "Q6_x_2018": "",
   "S1_5_2018": "",
   "S6_x_2018": "",
   "Brennpunktschule-2018": ""
 },
 {
   "BSN": "06B02",
   "Schulname": "Louise-Schroeder-Schule (OSZ Bürowirtschaft und Verwaltung)",
   "Strasse": "Lippstädter Str. 9-11",
   "PLZ": 12207,
   "Schulart": "",
   "lat": 52.411247,
   "lng": 13.305736,
   "AlleLehrkraefte_2017": 146,
   "AlleQ_2017": "1 %",
   "AlleLehrkraefte_2018": 139,
   "AlleQS_2018": "1 %",
   "Q1_5_2018": "",
   "Q6_x_2018": "",
   "S1_5_2018": "1 %",
   "S6_x_2018": "",
   "Brennpunktschule-2018": ""
 },
 {
   "BSN": "07G36",
   "Schulname": "Grundschule am Dielingsgrund",
   "Strasse": "Dielingsgrund 35",
   "PLZ": 12305,
   "Schulart": "Grundschule",
   "lat": 52.41166,
   "lng": 13.40863,
   "AlleLehrkraefte_2017": 34,
   "AlleQ_2017": "12 %",
   "AlleLehrkraefte_2018": 33,
   "AlleQS_2018": "6 %",
   "Q1_5_2018": "6 %",
   "Q6_x_2018": "",
   "S1_5_2018": "",
   "S6_x_2018": "",
   "Brennpunktschule-2018": ""
 },
 {
   "BSN": "08G11",
   "Schulname": "Schliemann-Schule (Grundschule)",
   "Strasse": "Groß-Ziethener Chaussee 73",
   "PLZ": 12355,
   "Schulart": "Grundschule",
   "lat": 52.41198,
   "lng": 13.48526,
   "AlleLehrkraefte_2017": 31,
   "AlleQ_2017": "10 %",
   "AlleLehrkraefte_2018": 34,
   "AlleQS_2018": "6 %",
   "Q1_5_2018": "3 %",
   "Q6_x_2018": "",
   "S1_5_2018": "3 %",
   "S6_x_2018": "",
   "Brennpunktschule-2018": ""
 },
 {
   "BSN": "07G34",
   "Schulname": "Marienfelder Schule (Grundschule)",
   "Strasse": "Erbendorfer Weg 13",
   "PLZ": 12279,
   "Schulart": "Grundschule",
   "lat": 52.41209,
   "lng": 13.35184,
   "AlleLehrkraefte_2017": 41,
   "AlleQ_2017": "10 %",
   "AlleLehrkraefte_2018": 41,
   "AlleQS_2018": "15 %",
   "Q1_5_2018": "",
   "Q6_x_2018": "15 %",
   "S1_5_2018": "",
   "S6_x_2018": "",
   "Brennpunktschule-2018": "x"
 },
 {
   "BSN": "06G30",
   "Schulname": "Mercator-Grundschule",
   "Strasse": "Mercatorweg 8-10",
   "PLZ": 12207,
   "Schulart": "Grundschule",
   "lat": 52.41225,
   "lng": 13.317376,
   "AlleLehrkraefte_2017": 35,
   "AlleQ_2017": "6 %",
   "AlleLehrkraefte_2018": 33,
   "AlleQS_2018": "6 %",
   "Q1_5_2018": "6 %",
   "Q6_x_2018": "",
   "S1_5_2018": "",
   "S6_x_2018": "",
   "Brennpunktschule-2018": "x"
 },
 {
   "BSN": "08G25",
   "Schulname": "Michael-Ende-Schule (Grundschule)",
   "Strasse": "Neuhofer Str. 41",
   "PLZ": 12355,
   "Schulart": "Grundschule",
   "lat": 52.41346,
   "lng": 13.50984,
   "AlleLehrkraefte_2017": 25,
   "AlleQ_2017": "8 %",
   "AlleLehrkraefte_2018": null,
   "AlleQS_2018": "",
   "Q1_5_2018": "",
   "Q6_x_2018": "",
   "S1_5_2018": "",
   "S6_x_2018": "",
   "Brennpunktschule-2018": ""
 },
 {
   "BSN": "07K05",
   "Schulname": "Solling-Schule",
   "Strasse": "Alt-Marienfelde 52",
   "PLZ": 12277,
   "Schulart": "Integrierte Sekundarschule",
   "lat": 52.41397,
   "lng": 13.36527,
   "AlleLehrkraefte_2017": 46,
   "AlleQ_2017": "4 %",
   "AlleLehrkraefte_2018": 49,
   "AlleQS_2018": "6 %",
   "Q1_5_2018": "6 %",
   "Q6_x_2018": "",
   "S1_5_2018": "",
   "S6_x_2018": "",
   "Brennpunktschule-2018": ""
 },
 {
   "BSN": "09G20",
   "Schulname": "Müggelheimer Schule (Grundschule)",
   "Strasse": "Odernheimer Str. 28",
   "PLZ": 12559,
   "Schulart": "Grundschule",
   "lat": 52.41469,
   "lng": 13.66739,
   "AlleLehrkraefte_2017": 18,
   "AlleQ_2017": "0 %",
   "AlleLehrkraefte_2018": 19,
   "AlleQS_2018": "5 %",
   "Q1_5_2018": "",
   "Q6_x_2018": "",
   "S1_5_2018": "5 %",
   "S6_x_2018": "",
   "Brennpunktschule-2018": ""
 },
 {
   "BSN": "06G05",
   "Schulname": "Conrad-Schule (Grundschule)",
   "Strasse": "Schulstr. 4",
   "PLZ": 14109,
   "Schulart": "Grundschule",
   "lat": 52.415181,
   "lng": 13.146695,
   "AlleLehrkraefte_2017": 30,
   "AlleQ_2017": "7 %",
   "AlleLehrkraefte_2018": 29,
   "AlleQS_2018": "7 %",
   "Q1_5_2018": "7 %",
   "Q6_x_2018": "",
   "S1_5_2018": "",
   "S6_x_2018": "",
   "Brennpunktschule-2018": ""
 },
 {
   "BSN": "08K04",
   "Schulname": "Heinrich-Mann-Schule",
   "Strasse": "Gerlinger Str. 22",
   "PLZ": 12353,
   "Schulart": "Integrierte Sekundarschule",
   "lat": 52.41578,
   "lng": 13.43231,
   "AlleLehrkraefte_2017": 40,
   "AlleQ_2017": "15 %",
   "AlleLehrkraefte_2018": 42,
   "AlleQS_2018": "12 %",
   "Q1_5_2018": "12 %",
   "Q6_x_2018": "",
   "S1_5_2018": "",
   "S6_x_2018": "",
   "Brennpunktschule-2018": "x"
 },
 {
   "BSN": "07G28",
   "Schulname": "Kiepert-Grundschule",
   "Strasse": "Prechtlstr. 21-23",
   "PLZ": 12277,
   "Schulart": "Grundschule",
   "lat": 52.41591,
   "lng": 13.37327,
   "AlleLehrkraefte_2017": 40,
   "AlleQ_2017": "8 %",
   "AlleLehrkraefte_2018": 38,
   "AlleQS_2018": "5 %",
   "Q1_5_2018": "5 %",
   "Q6_x_2018": "",
   "S1_5_2018": "",
   "S6_x_2018": "",
   "Brennpunktschule-2018": ""
 },
 {
   "BSN": "08Y05",
   "Schulname": "Leonardo-da-Vinci-Gymnasium",
   "Strasse": "Haewererweg 35",
   "PLZ": 12349,
   "Schulart": "Gymnasium",
   "lat": 52.41623,
   "lng": 13.42658,
   "AlleLehrkraefte_2017": 62,
   "AlleQ_2017": "2 %",
   "AlleLehrkraefte_2018": 59,
   "AlleQS_2018": "4 %",
   "Q1_5_2018": "2 %",
   "Q6_x_2018": "",
   "S1_5_2018": "2 %",
   "S6_x_2018": "",
   "Brennpunktschule-2018": ""
 },
 {
   "BSN": "06G29",
   "Schulname": "Grundschule am Karpfenteich",
   "Strasse": "Hildburghauser Str. 135",
   "PLZ": 12209,
   "Schulart": "Grundschule",
   "lat": 52.417401,
   "lng": 13.333982,
   "AlleLehrkraefte_2017": 28,
   "AlleQ_2017": "0 %",
   "AlleLehrkraefte_2018": 30,
   "AlleQS_2018": "3 %",
   "Q1_5_2018": "",
   "Q6_x_2018": "",
   "S1_5_2018": "3 %",
   "S6_x_2018": "",
   "Brennpunktschule-2018": ""
 },
 {
   "BSN": "08K05",
   "Schulname": "Clay-Schule",
   "Strasse": "Bildhauerweg 9",
   "PLZ": 12355,
   "Schulart": "Integrierte Sekundarschule",
   "lat": 52.41759,
   "lng": 13.48999,
   "AlleLehrkraefte_2017": 105,
   "AlleQ_2017": "4 %",
   "AlleLehrkraefte_2018": 109,
   "AlleQS_2018": "5 %",
   "Q1_5_2018": "5 %",
   "Q6_x_2018": "",
   "S1_5_2018": "",
   "S6_x_2018": "",
   "Brennpunktschule-2018": ""
 },
 {
   "BSN": "07S03",
   "Schulname": "Steinwald-Schule",
   "Strasse": "Hanielweg 7-9",
   "PLZ": 12277,
   "Schulart": "Förderschwerp.\"Geistige Entwicklung\"",
   "lat": 52.41783,
   "lng": 13.36458,
   "AlleLehrkraefte_2017": 21,
   "AlleQ_2017": "0 %",
   "AlleLehrkraefte_2018": null,
   "AlleQS_2018": "",
   "Q1_5_2018": "",
   "Q6_x_2018": "",
   "S1_5_2018": "",
   "S6_x_2018": "",
   "Brennpunktschule-2018": "x"
 },
 {
   "BSN": "08G30",
   "Schulname": "Schule am Sandsteinweg (Grundschule)",
   "Strasse": "Hornblendeweg 2",
   "PLZ": 12349,
   "Schulart": "Grundschule",
   "lat": 52.41829,
   "lng": 13.40469,
   "AlleLehrkraefte_2017": 48,
   "AlleQ_2017": "2 %",
   "AlleLehrkraefte_2018": 47,
   "AlleQS_2018": "8 %",
   "Q1_5_2018": "4 %",
   "Q6_x_2018": "",
   "S1_5_2018": "4 %",
   "S6_x_2018": "",
   "Brennpunktschule-2018": ""
 },
 {
   "BSN": "09G10",
   "Schulname": "Schule am Berg (Grundschule)",
   "Strasse": "Köpenicker Str. 31",
   "PLZ": 12524,
   "Schulart": "Grundschule",
   "lat": 52.41866,
   "lng": 13.538044,
   "AlleLehrkraefte_2017": 32,
   "AlleQ_2017": "9 %",
   "AlleLehrkraefte_2018": 32,
   "AlleQS_2018": "9 %",
   "Q1_5_2018": "9 %",
   "Q6_x_2018": "",
   "S1_5_2018": "",
   "S6_x_2018": "",
   "Brennpunktschule-2018": ""
 },
 {
   "BSN": "06G02",
   "Schulname": "Süd-Grundschule",
   "Strasse": "Claszeile 56",
   "PLZ": 14165,
   "Schulart": "Grundschule",
   "lat": 52.4189,
   "lng": 13.25839,
   "AlleLehrkraefte_2017": 28,
   "AlleQ_2017": "4 %",
   "AlleLehrkraefte_2018": 26,
   "AlleQS_2018": "8 %",
   "Q1_5_2018": "4 %",
   "Q6_x_2018": "",
   "S1_5_2018": "4 %",
   "S6_x_2018": "",
   "Brennpunktschule-2018": ""
 },
 {
   "BSN": "09K09",
   "Schulname": "Grünauer Schule (Gemeinschaftsschule)",
   "Strasse": "Walchenseestr. 40",
   "PLZ": 12527,
   "Schulart": "Integrierte Sekundarschule",
   "lat": 52.419368,
   "lng": 13.576124,
   "AlleLehrkraefte_2017": 73,
   "AlleQ_2017": "4 %",
   "AlleLehrkraefte_2018": 80,
   "AlleQS_2018": "1 %",
   "Q1_5_2018": "1 %",
   "Q6_x_2018": "",
   "S1_5_2018": "",
   "S6_x_2018": "",
   "Brennpunktschule-2018": ""
 },
 {
   "BSN": "08G28",
   "Schulname": "Matthias-Claudius-Schule (Grundschule)",
   "Strasse": "Köpenicker Str. 148",
   "PLZ": 12355,
   "Schulart": "Grundschule",
   "lat": 52.420381,
   "lng": 13.501675,
   "AlleLehrkraefte_2017": 27,
   "AlleQ_2017": "4 %",
   "AlleLehrkraefte_2018": 27,
   "AlleQS_2018": "15 %",
   "Q1_5_2018": "11 %",
   "Q6_x_2018": "",
   "S1_5_2018": "4 %",
   "S6_x_2018": "",
   "Brennpunktschule-2018": ""
 },
 {
   "BSN": "06G09",
   "Schulname": "Dreilinden-Grundschule",
   "Strasse": "Dreilindenstr. 65",
   "PLZ": 14109,
   "Schulart": "Grundschule",
   "lat": 52.4205,
   "lng": 13.18369,
   "AlleLehrkraefte_2017": 21,
   "AlleQ_2017": "5 %",
   "AlleLehrkraefte_2018": 21,
   "AlleQS_2018": "5 %",
   "Q1_5_2018": "5 %",
   "Q6_x_2018": "",
   "S1_5_2018": "",
   "S6_x_2018": "",
   "Brennpunktschule-2018": ""
 },
 {
   "BSN": "06Y04",
   "Schulname": "Dreilinden-Gymnasium",
   "Strasse": "Dreilindenstr. 49",
   "PLZ": 14109,
   "Schulart": "Gymnasium",
   "lat": 52.42057,
   "lng": 13.18778,
   "AlleLehrkraefte_2017": 52,
   "AlleQ_2017": "2 %",
   "AlleLehrkraefte_2018": 53,
   "AlleQS_2018": "2 %",
   "Q1_5_2018": "2 %",
   "Q6_x_2018": "",
   "S1_5_2018": "",
   "S6_x_2018": "",
   "Brennpunktschule-2018": ""
 },
 {
   "BSN": "08G26",
   "Schulname": "Christoph-Ruden-Schule (Grundschule)",
   "Strasse": "An den Achterhöfen 13",
   "PLZ": 12349,
   "Schulart": "Grundschule",
   "lat": 52.421067,
   "lng": 13.435095,
   "AlleLehrkraefte_2017": 25,
   "AlleQ_2017": "8 %",
   "AlleLehrkraefte_2018": 22,
   "AlleQS_2018": "23 %",
   "Q1_5_2018": "23 %",
   "Q6_x_2018": "",
   "S1_5_2018": "",
   "S6_x_2018": "",
   "Brennpunktschule-2018": "x"
 },
 {
   "BSN": "08S07",
   "Schulname": "Schule am Bienwaldring",
   "Strasse": "Breitunger Weg 1",
   "PLZ": 12349,
   "Schulart": "Förderschwerp.\"Geistige Entwicklung\"",
   "lat": 52.42178,
   "lng": 13.42537,
   "AlleLehrkraefte_2017": 39,
   "AlleQ_2017": "0 %",
   "AlleLehrkraefte_2018": null,
   "AlleQS_2018": "",
   "Q1_5_2018": "",
   "Q6_x_2018": "",
   "S1_5_2018": "",
   "S6_x_2018": "",
   "Brennpunktschule-2018": "x"
 },
 {
   "BSN": "08G31",
   "Schulname": "Janusz-Korczak-Schule (Grundschule)",
   "Strasse": "Wildhüterweg 5",
   "PLZ": 12353,
   "Schulart": "Grundschule",
   "lat": 52.42179,
   "lng": 13.45659,
   "AlleLehrkraefte_2017": 20,
   "AlleQ_2017": "5 %",
   "AlleLehrkraefte_2018": 21,
   "AlleQS_2018": "19 %",
   "Q1_5_2018": "14 %",
   "Q6_x_2018": "",
   "S1_5_2018": "5 %",
   "S6_x_2018": "",
   "Brennpunktschule-2018": "x"
 },
 {
   "BSN": "08K02",
   "Schulname": "Hermann-von-Helmholtz-Schule",
   "Strasse": "Wutzkyallee 68",
   "PLZ": 12353,
   "Schulart": "Integrierte Sekundarschule",
   "lat": 52.421823,
   "lng": 13.472974,
   "AlleLehrkraefte_2017": 72,
   "AlleQ_2017": "14 %",
   "AlleLehrkraefte_2018": 79,
   "AlleQS_2018": "17 %",
   "Q1_5_2018": "",
   "Q6_x_2018": "16 %",
   "S1_5_2018": "1 %",
   "S6_x_2018": "",
   "Brennpunktschule-2018": "x"
 },
 {
   "BSN": "06G10",
   "Schulname": "Grundschule am Buschgraben",
   "Strasse": "Ludwigsfelder Str. 43-47",
   "PLZ": 14165,
   "Schulart": "Grundschule",
   "lat": 52.42192,
   "lng": 13.242834,
   "AlleLehrkraefte_2017": 21,
   "AlleQ_2017": "5 %",
   "AlleLehrkraefte_2018": 20,
   "AlleQS_2018": "5 %",
   "Q1_5_2018": "5 %",
   "Q6_x_2018": "",
   "S1_5_2018": "",
   "S6_x_2018": "",
   "Brennpunktschule-2018": ""
 },
 {
   "BSN": "06G22",
   "Schulname": "Giesensdorfer Grundschule",
   "Strasse": "Ostpreußendamm 63",
   "PLZ": 12207,
   "Schulart": "Grundschule",
   "lat": 52.422226,
   "lng": 13.31101,
   "AlleLehrkraefte_2017": 26,
   "AlleQ_2017": "4 %",
   "AlleLehrkraefte_2018": 27,
   "AlleQS_2018": "11 %",
   "Q1_5_2018": "11 %",
   "Q6_x_2018": "",
   "S1_5_2018": "",
   "S6_x_2018": "",
   "Brennpunktschule-2018": ""
 },
 {
   "BSN": "08G34",
   "Schulname": "Lisa-Tetzner-Schule (Grundschule)",
   "Strasse": "Hasenhegerweg 12",
   "PLZ": 12353,
   "Schulart": "Grundschule",
   "lat": 52.42254,
   "lng": 13.44504,
   "AlleLehrkraefte_2017": 29,
   "AlleQ_2017": "3 %",
   "AlleLehrkraefte_2018": 34,
   "AlleQS_2018": "18 %",
   "Q1_5_2018": "15 %",
   "Q6_x_2018": "",
   "S1_5_2018": "3 %",
   "S6_x_2018": "",
   "Brennpunktschule-2018": "x"
 },
 {
   "BSN": "08S05",
   "Schulname": "Schule am Hasenhegerweg",
   "Strasse": "Hasenhegerweg 12",
   "PLZ": 12353,
   "Schulart": "Förderschwerp.\"Lernen\"",
   "lat": 52.422399,
   "lng": 13.446725,
   "AlleLehrkraefte_2017": 13,
   "AlleQ_2017": "0 %",
   "AlleLehrkraefte_2018": 13,
   "AlleQS_2018": "15 %",
   "Q1_5_2018": "15 %",
   "Q6_x_2018": "",
   "S1_5_2018": "",
   "S6_x_2018": "",
   "Brennpunktschule-2018": "x"
 },
 {
   "BSN": "06G08",
   "Schulname": "Schweizerhof-Grundschule",
   "Strasse": "Leo-Baeck-Str. 28-30",
   "PLZ": 14167,
   "Schulart": "Grundschule",
   "lat": 52.42278,
   "lng": 13.26571,
   "AlleLehrkraefte_2017": 33,
   "AlleQ_2017": "3 %",
   "AlleLehrkraefte_2018": 34,
   "AlleQS_2018": "3 %",
   "Q1_5_2018": "3 %",
   "Q6_x_2018": "",
   "S1_5_2018": "",
   "S6_x_2018": "",
   "Brennpunktschule-2018": ""
 },
 {
   "BSN": "06G27",
   "Schulname": "Grundschule am Königsgraben",
   "Strasse": "Gallwitzallee 136-144",
   "PLZ": 12249,
   "Schulart": "Grundschule",
   "lat": 52.42303,
   "lng": 13.34815,
   "AlleLehrkraefte_2017": 24,
   "AlleQ_2017": "8 %",
   "AlleLehrkraefte_2018": 27,
   "AlleQS_2018": "7 %",
   "Q1_5_2018": "7 %",
   "Q6_x_2018": "",
   "S1_5_2018": "",
   "S6_x_2018": "",
   "Brennpunktschule-2018": ""
 },
 {
   "BSN": "08G33",
   "Schulname": "Schule am Fliederbusch (Grundschule)",
   "Strasse": "Kornradenstr. 2",
   "PLZ": 12357,
   "Schulart": "Grundschule",
   "lat": 52.42424,
   "lng": 13.48673,
   "AlleLehrkraefte_2017": 20,
   "AlleQ_2017": "15 %",
   "AlleLehrkraefte_2018": 27,
   "AlleQS_2018": "19 %",
   "Q1_5_2018": "19 %",
   "Q6_x_2018": "",
   "S1_5_2018": "",
   "S6_x_2018": "",
   "Brennpunktschule-2018": "x"
 },
 {
   "BSN": "08G16",
   "Schulname": "Hugo-Heimann-Schule",
   "Strasse": "Hugo-Heimann-Str. 20",
   "PLZ": 12353,
   "Schulart": "Grundschule",
   "lat": 52.42538,
   "lng": 13.45705,
   "AlleLehrkraefte_2017": 21,
   "AlleQ_2017": "14 %",
   "AlleLehrkraefte_2018": 23,
   "AlleQS_2018": "22 %",
   "Q1_5_2018": "22 %",
   "Q6_x_2018": "",
   "S1_5_2018": "",
   "S6_x_2018": "",
   "Brennpunktschule-2018": "x"
 },
 {
   "BSN": "06G24",
   "Schulname": "Grundschule unter den Kastanien",
   "Strasse": "Kastanienstr. 6 -8",
   "PLZ": 12209,
   "Schulart": "Grundschule",
   "lat": 52.42546,
   "lng": 13.32527,
   "AlleLehrkraefte_2017": 30,
   "AlleQ_2017": "3 %",
   "AlleLehrkraefte_2018": 32,
   "AlleQS_2018": "3 %",
   "Q1_5_2018": "3 %",
   "Q6_x_2018": "",
   "S1_5_2018": "",
   "S6_x_2018": "",
   "Brennpunktschule-2018": ""
 },
 {
   "BSN": "06K01",
   "Schulname": "John-F.-Kennedy-Schule",
   "Strasse": "Teltower Damm 87-93",
   "PLZ": 14167,
   "Schulart": "Integrierte Sekundarschule",
   "lat": 52.42589,
   "lng": 13.26273,
   "AlleLehrkraefte_2017": 150,
   "AlleQ_2017": "1 %",
   "AlleLehrkraefte_2018": 154,
   "AlleQS_2018": "10 %",
   "Q1_5_2018": "",
   "Q6_x_2018": "",
   "S1_5_2018": "",
   "S6_x_2018": "10 %",
   "Brennpunktschule-2018": ""
 },
 {
   "BSN": "08K13",
   "Schulname": "Gemeinschaftsschule Campus Efeuweg",
   "Strasse": "Efeuweg 34",
   "PLZ": 12357,
   "Schulart": "Integrierte Sekundarschule",
   "lat": 52.427206,
   "lng": 13.47409,
   "AlleLehrkraefte_2017": 76,
   "AlleQ_2017": "14 %",
   "AlleLehrkraefte_2018": 81,
   "AlleQS_2018": "16 %",
   "Q1_5_2018": "",
   "Q6_x_2018": "14 %",
   "S1_5_2018": "2 %",
   "S6_x_2018": "",
   "Brennpunktschule-2018": "x"
 },
 {
   "BSN": "08S09",
   "Schulname": "Schule an der Windmühle",
   "Strasse": "Buckower Damm 176",
   "PLZ": 12349,
   "Schulart": "Integrierte Sekundarschule",
   "lat": 52.42741,
   "lng": 13.43451,
   "AlleLehrkraefte_2017": 17,
   "AlleQ_2017": "0 %",
   "AlleLehrkraefte_2018": null,
   "AlleQS_2018": "",
   "Q1_5_2018": "",
   "Q6_x_2018": "",
   "S1_5_2018": "",
   "S6_x_2018": "",
   "Brennpunktschule-2018": "x"
 },
 {
   "BSN": "06K04",
   "Schulname": "Bröndby-Schule (Integrierte Sekundarschule)",
   "Strasse": "Dessauerstr. 63",
   "PLZ": 12249,
   "Schulart": "Integrierte Sekundarschule",
   "lat": 52.428237,
   "lng": 13.345888,
   "AlleLehrkraefte_2017": 98,
   "AlleQ_2017": "3 %",
   "AlleLehrkraefte_2018": 93,
   "AlleQS_2018": "3 %",
   "Q1_5_2018": "3 %",
   "Q6_x_2018": "",
   "S1_5_2018": "",
   "S6_x_2018": "",
   "Brennpunktschule-2018": ""
 },
 {
   "BSN": "09G16",
   "Schulname": "Wendenschloß-Schule (Grundschule)",
   "Strasse": "Köpenzeile 123",
   "PLZ": 12557,
   "Schulart": "Grundschule",
   "lat": 52.42845,
   "lng": 13.5953,
   "AlleLehrkraefte_2017": 23,
   "AlleQ_2017": "9 %",
   "AlleLehrkraefte_2018": 23,
   "AlleQS_2018": "13 %",
   "Q1_5_2018": "4 %",
   "Q6_x_2018": "",
   "S1_5_2018": "9 %",
   "S6_x_2018": "",
   "Brennpunktschule-2018": ""
 },
 {
   "BSN": "06Y02",
   "Schulname": "Droste-Hülshoff-Oberschule",
   "Strasse": "Schönower Str. 8",
   "PLZ": 14165,
   "Schulart": "Gymnasium",
   "lat": 52.42846,
   "lng": 13.25673,
   "AlleLehrkraefte_2017": 71,
   "AlleQ_2017": "0 %",
   "AlleLehrkraefte_2018": null,
   "AlleQS_2018": "",
   "Q1_5_2018": "",
   "Q6_x_2018": "",
   "S1_5_2018": "",
   "S6_x_2018": "",
   "Brennpunktschule-2018": ""
 },
 {
   "BSN": "06A05",
   "Schulname": "Volkshochschule Steglitz-Zehlendorf",
   "Strasse": "Goethestr. 9-11",
   "PLZ": 12207,
   "Schulart": "",
   "lat": 52.429216,
   "lng": 13.316553,
   "AlleLehrkraefte_2017": 19,
   "AlleQ_2017": "0 %",
   "AlleLehrkraefte_2018": 17,
   "AlleQS_2018": "6 %",
   "Q1_5_2018": "6 %",
   "Q6_x_2018": "",
   "S1_5_2018": "",
   "S6_x_2018": "",
   "Brennpunktschule-2018": ""
 },
 {
   "BSN": "08K01",
   "Schulname": "Walter-Gropius-Schule (Gemeinschaftsschule)",
   "Strasse": "Fritz-Erler-Allee 86",
   "PLZ": 12351,
   "Schulart": "Integrierte Sekundarschule",
   "lat": 52.42934,
   "lng": 13.46355,
   "AlleLehrkraefte_2017": 95,
   "AlleQ_2017": "2 %",
   "AlleLehrkraefte_2018": 95,
   "AlleQS_2018": "2 %",
   "Q1_5_2018": "2 %",
   "Q6_x_2018": "",
   "S1_5_2018": "",
   "S6_x_2018": "",
   "Brennpunktschule-2018": "x"
 },
 {
   "BSN": "08G22",
   "Schulname": "Schule am Regenweiher (Grundschule)",
   "Strasse": "Johannisthaler Chaussee 328",
   "PLZ": 12351,
   "Schulart": "Grundschule",
   "lat": 52.42985,
   "lng": 13.45178,
   "AlleLehrkraefte_2017": 23,
   "AlleQ_2017": "4 %",
   "AlleLehrkraefte_2018": 26,
   "AlleQS_2018": "8 %",
   "Q1_5_2018": "",
   "Q6_x_2018": "",
   "S1_5_2018": "8 %",
   "S6_x_2018": "",
   "Brennpunktschule-2018": "x"
 },
 {
   "BSN": "06B03",
   "Schulname": "OSZ Bürowirtschaft I",
   "Strasse": "Ostpreußendamm 40",
   "PLZ": 12207,
   "Schulart": "",
   "lat": 52.430294,
   "lng": 13.31713,
   "AlleLehrkraefte_2017": 77,
   "AlleQ_2017": "0 %",
   "AlleLehrkraefte_2018": 83,
   "AlleQS_2018": "3 %",
   "Q1_5_2018": "1 %",
   "Q6_x_2018": "",
   "S1_5_2018": "2 %",
   "S6_x_2018": "",
   "Brennpunktschule-2018": ""
 },
 {
   "BSN": "08B02",
   "Schulname": "Lise-Meitner-Schule (OSZ Chemie, Physik und Biologie)",
   "Strasse": "Rudower Str. 184",
   "PLZ": 12351,
   "Schulart": "",
   "lat": 52.430295,
   "lng": 13.475099,
   "AlleLehrkraefte_2017": 122,
   "AlleQ_2017": "5 %",
   "AlleLehrkraefte_2018": 126,
   "AlleQS_2018": "4 %",
   "Q1_5_2018": "3 %",
   "Q6_x_2018": "",
   "S1_5_2018": "1 %",
   "S6_x_2018": "",
   "Brennpunktschule-2018": ""
 },
 {
   "BSN": "08G29",
   "Schulname": "Wetzlar-Schule (Grundschule)",
   "Strasse": "Tischlerzeile 34",
   "PLZ": 12351,
   "Schulart": "Grundschule",
   "lat": 52.43092,
   "lng": 13.44294,
   "AlleLehrkraefte_2017": 29,
   "AlleQ_2017": "0 %",
   "AlleLehrkraefte_2018": null,
   "AlleQS_2018": "",
   "Q1_5_2018": "",
   "Q6_x_2018": "",
   "S1_5_2018": "",
   "S6_x_2018": "",
   "Brennpunktschule-2018": ""
 },
 {
   "BSN": "06G21",
   "Schulname": "Paul-Schneider-Grundschule",
   "Strasse": "Seydlitzstr. 30-34",
   "PLZ": 12249,
   "Schulart": "Grundschule",
   "lat": 52.431002,
   "lng": 13.341243,
   "AlleLehrkraefte_2017": 31,
   "AlleQ_2017": "3 %",
   "AlleLehrkraefte_2018": 33,
   "AlleQS_2018": "9 %",
   "Q1_5_2018": "9 %",
   "Q6_x_2018": "",
   "S1_5_2018": "",
   "S6_x_2018": "",
   "Brennpunktschule-2018": ""
 },
 {
   "BSN": "06Y01",
   "Schulname": "Schadow-Gymnasium",
   "Strasse": "Beuckestr. 27-29",
   "PLZ": 14163,
   "Schulart": "Gymnasium",
   "lat": 52.43149,
   "lng": 13.25463,
   "AlleLehrkraefte_2017": 101,
   "AlleQ_2017": "1 %",
   "AlleLehrkraefte_2018": 94,
   "AlleQS_2018": "2 %",
   "Q1_5_2018": "",
   "Q6_x_2018": "",
   "S1_5_2018": "2 %",
   "S6_x_2018": "",
   "Brennpunktschule-2018": ""
 },
 {
   "BSN": "06G03",
   "Schulname": "Johannes-Tews-Grundschule",
   "Strasse": "Wasgenstr. 50",
   "PLZ": 14129,
   "Schulart": "Grundschule",
   "lat": 52.43162,
   "lng": 13.21262,
   "AlleLehrkraefte_2017": 31,
   "AlleQ_2017": "3 %",
   "AlleLehrkraefte_2018": 28,
   "AlleQS_2018": "4 %",
   "Q1_5_2018": "4 %",
   "Q6_x_2018": "",
   "S1_5_2018": "",
   "S6_x_2018": "",
   "Brennpunktschule-2018": ""
 },
 {
   "BSN": "06Y05",
   "Schulname": "Werner-von-Siemens-Oberschule",
   "Strasse": "Beskidenstr. 3",
   "PLZ": 14129,
   "Schulart": "Gymnasium",
   "lat": 52.43194,
   "lng": 13.21159,
   "AlleLehrkraefte_2017": 61,
   "AlleQ_2017": "0 %",
   "AlleLehrkraefte_2018": 60,
   "AlleQS_2018": "2 %",
   "Q1_5_2018": "",
   "Q6_x_2018": "",
   "S1_5_2018": "2 %",
   "S6_x_2018": "",
   "Brennpunktschule-2018": ""
 },
 {
   "BSN": "06G33",
   "Schulname": "Friedrich-Drake-Schule",
   "Strasse": "Drakestr. 80",
   "PLZ": 12205,
   "Schulart": "Grundschule",
   "lat": 52.43254,
   "lng": 13.30621,
   "AlleLehrkraefte_2017": 14,
   "AlleQ_2017": "7 %",
   "AlleLehrkraefte_2018": 17,
   "AlleQS_2018": "6 %",
   "Q1_5_2018": "6 %",
   "Q6_x_2018": "",
   "S1_5_2018": "",
   "S6_x_2018": "",
   "Brennpunktschule-2018": ""
 },
 {
   "BSN": "06G28",
   "Schulname": "Ludwig-Bechstein-Grundschule",
   "Strasse": "Halbauer Weg 25",
   "PLZ": 12249,
   "Schulart": "Grundschule",
   "lat": 52.43255,
   "lng": 13.36236,
   "AlleLehrkraefte_2017": 23,
   "AlleQ_2017": "0 %",
   "AlleLehrkraefte_2018": null,
   "AlleQS_2018": "",
   "Q1_5_2018": "",
   "Q6_x_2018": "",
   "S1_5_2018": "",
   "S6_x_2018": "",
   "Brennpunktschule-2018": "x"
 },
 {
   "BSN": "06Y06",
   "Schulname": "Beethoven-Oberschule",
   "Strasse": "Barbarastr. 9",
   "PLZ": 12249,
   "Schulart": "Gymnasium",
   "lat": 52.43293,
   "lng": 13.34283,
   "AlleLehrkraefte_2017": 71,
   "AlleQ_2017": "0 %",
   "AlleLehrkraefte_2018": null,
   "AlleQS_2018": "",
   "Q1_5_2018": "",
   "Q6_x_2018": "",
   "S1_5_2018": "",
   "S6_x_2018": "",
   "Brennpunktschule-2018": ""
 },
 {
   "BSN": "06G25",
   "Schulname": "Clemens-Brentano-Grundschule",
   "Strasse": "Kommandantenstr. 83-84",
   "PLZ": 12205,
   "Schulart": "Grundschule",
   "lat": 52.433511,
   "lng": 13.29316,
   "AlleLehrkraefte_2017": 32,
   "AlleQ_2017": "3 %",
   "AlleLehrkraefte_2018": null,
   "AlleQS_2018": "",
   "Q1_5_2018": "",
   "Q6_x_2018": "",
   "S1_5_2018": "",
   "S6_x_2018": "",
   "Brennpunktschule-2018": ""
 },
 {
   "BSN": "07G37",
   "Schulname": "Ikarus-Grundschule",
   "Strasse": "Körtingstr. 45",
   "PLZ": 12107,
   "Schulart": "Grundschule",
   "lat": 52.43363,
   "lng": 13.38389,
   "AlleLehrkraefte_2017": 35,
   "AlleQ_2017": "6 %",
   "AlleLehrkraefte_2018": 34,
   "AlleQS_2018": "12 %",
   "Q1_5_2018": "12 %",
   "Q6_x_2018": "",
   "S1_5_2018": "",
   "S6_x_2018": "",
   "Brennpunktschule-2018": ""
 },
 {
   "BSN": "09G26",
   "Schulname": "Schule an den Püttbergen (Grundschule)",
   "Strasse": "Fürstenwalder Allee 182",
   "PLZ": 12589,
   "Schulart": "Grundschule",
   "lat": 52.43385,
   "lng": 13.70158,
   "AlleLehrkraefte_2017": 28,
   "AlleQ_2017": "4 %",
   "AlleLehrkraefte_2018": 28,
   "AlleQS_2018": "7 %",
   "Q1_5_2018": "",
   "Q6_x_2018": "",
   "S1_5_2018": "7 %",
   "S6_x_2018": "",
   "Brennpunktschule-2018": ""
 },
 {
   "BSN": "06Y12",
   "Schulname": "Willi-Graf-Gymnasium",
   "Strasse": "Ostpreußendamm 166",
   "PLZ": 12207,
   "Schulart": "Gymnasium",
   "lat": 52.43469,
   "lng": 13.32096,
   "AlleLehrkraefte_2017": 46,
   "AlleQ_2017": "0 %",
   "AlleLehrkraefte_2018": null,
   "AlleQS_2018": "",
   "Q1_5_2018": "",
   "Q6_x_2018": "",
   "S1_5_2018": "",
   "S6_x_2018": "",
   "Brennpunktschule-2018": ""
 },
 {
   "BSN": "06Y11",
   "Schulname": "Goethe-Gymnasium Lichterfelde",
   "Strasse": "Drakestr. 72-75",
   "PLZ": 12205,
   "Schulart": "Gymnasium",
   "lat": 52.434929,
   "lng": 13.305363,
   "AlleLehrkraefte_2017": 66,
   "AlleQ_2017": "0 %",
   "AlleLehrkraefte_2018": 65,
   "AlleQS_2018": "2 %",
   "Q1_5_2018": "2 %",
   "Q6_x_2018": "",
   "S1_5_2018": "",
   "S6_x_2018": "",
   "Brennpunktschule-2018": ""
 },
 {
   "BSN": "06S03",
   "Schulname": "Peter-Frankenfeld-Schule",
   "Strasse": "Wedellstr. 26",
   "PLZ": 12247,
   "Schulart": "Förderschwerp.\"Geistige Entwicklung\"",
   "lat": 52.43515,
   "lng": 13.35522,
   "AlleLehrkraefte_2017": 21,
   "AlleQ_2017": "0 %",
   "AlleLehrkraefte_2018": null,
   "AlleQS_2018": "",
   "Q1_5_2018": "",
   "Q6_x_2018": "",
   "S1_5_2018": "",
   "S6_x_2018": "",
   "Brennpunktschule-2018": "x"
 },
 {
   "BSN": "09K02",
   "Schulname": "Anna-Seghers-Schule (Gemeinschaftsschule)",
   "Strasse": "Radickestr. 43",
   "PLZ": 12489,
   "Schulart": "Integrierte Sekundarschule",
   "lat": 52.435416,
   "lng": 13.548246,
   "AlleLehrkraefte_2017": 91,
   "AlleQ_2017": "2 %",
   "AlleLehrkraefte_2018": 89,
   "AlleQS_2018": "4 %",
   "Q1_5_2018": "3 %",
   "Q6_x_2018": "",
   "S1_5_2018": "1 %",
   "S6_x_2018": "",
   "Brennpunktschule-2018": ""
 },
 {
   "BSN": "06Y10",
   "Schulname": "Lilienthal-Gymnasium",
   "Strasse": "Ringstr. 2-3",
   "PLZ": 12203,
   "Schulart": "Gymnasium",
   "lat": 52.43595,
   "lng": 13.31215,
   "AlleLehrkraefte_2017": 58,
   "AlleQ_2017": "2 %",
   "AlleLehrkraefte_2018": 58,
   "AlleQS_2018": "2 %",
   "Q1_5_2018": "",
   "Q6_x_2018": "",
   "S1_5_2018": "2 %",
   "S6_x_2018": "",
   "Brennpunktschule-2018": ""
 },
 {
   "BSN": "06G01",
   "Schulname": "Nord-Grundschule",
   "Strasse": "Potsdamer Str. 7",
   "PLZ": 14163,
   "Schulart": "Grundschule",
   "lat": 52.435951,
   "lng": 13.25558,
   "AlleLehrkraefte_2017": 30,
   "AlleQ_2017": "7 %",
   "AlleLehrkraefte_2018": 32,
   "AlleQS_2018": "6 %",
   "Q1_5_2018": "6 %",
   "Q6_x_2018": "",
   "S1_5_2018": "",
   "S6_x_2018": "",
   "Brennpunktschule-2018": ""
 },
 {
   "BSN": "06G20",
   "Schulname": "Alt-Lankwitzer Grundschule",
   "Strasse": "Schulstr. 17-21",
   "PLZ": 12247,
   "Schulart": "Grundschule",
   "lat": 52.437023,
   "lng": 13.351096,
   "AlleLehrkraefte_2017": 31,
   "AlleQ_2017": "3 %",
   "AlleLehrkraefte_2018": 30,
   "AlleQS_2018": "7 %",
   "Q1_5_2018": "7 %",
   "Q6_x_2018": "",
   "S1_5_2018": "",
   "S6_x_2018": "",
   "Brennpunktschule-2018": ""
 },
 {
   "BSN": "06K08",
   "Schulname": "Max-von-Laue-Schule",
   "Strasse": "Dürerstr. 27",
   "PLZ": 12203,
   "Schulart": "Integrierte Sekundarschule",
   "lat": 52.43725,
   "lng": 13.305628,
   "AlleLehrkraefte_2017": 42,
   "AlleQ_2017": "5 %",
   "AlleLehrkraefte_2018": null,
   "AlleQS_2018": "",
   "Q1_5_2018": "",
   "Q6_x_2018": "",
   "S1_5_2018": "",
   "S6_x_2018": "",
   "Brennpunktschule-2018": ""
 },
 {
   "BSN": "06G26",
   "Schulname": "Käthe-Kruse-Grundschule",
   "Strasse": "Tietzenweg 108",
   "PLZ": 12203,
   "Schulart": "Grundschule",
   "lat": 52.438186,
   "lng": 13.310138,
   "AlleLehrkraefte_2017": 24,
   "AlleQ_2017": "0 %",
   "AlleLehrkraefte_2018": 26,
   "AlleQS_2018": "4 %",
   "Q1_5_2018": "4 %",
   "Q6_x_2018": "",
   "S1_5_2018": "",
   "S6_x_2018": "",
   "Brennpunktschule-2018": ""
 },
 {
   "BSN": "09G09",
   "Schulname": "Heide-Schule (Grundschule)",
   "Strasse": "Florian-Geyer-Str. 87",
   "PLZ": 12489,
   "Schulart": "Grundschule",
   "lat": 52.438648,
   "lng": 13.543713,
   "AlleLehrkraefte_2017": 28,
   "AlleQ_2017": "11 %",
   "AlleLehrkraefte_2018": 32,
   "AlleQS_2018": "3 %",
   "Q1_5_2018": "3 %",
   "Q6_x_2018": "",
   "S1_5_2018": "",
   "S6_x_2018": "",
   "Brennpunktschule-2018": ""
 },
 {
   "BSN": "06K11",
   "Schulname": "Anna-Essinger-Gemeinschaftsschule",
   "Strasse": "Tietzenweg 101",
   "PLZ": 12203,
   "Schulart": "",
   "lat": 52.438827,
   "lng": 13.309841,
   "AlleLehrkraefte_2017": 95,
   "AlleQ_2017": "7 %",
   "AlleLehrkraefte_2018": 92,
   "AlleQS_2018": "6 %",
   "Q1_5_2018": "3 %",
   "Q6_x_2018": "",
   "S1_5_2018": "3 %",
   "S6_x_2018": "",
   "Brennpunktschule-2018": ""
 },
 {
   "BSN": "09G25",
   "Schulname": "Müggelschlößchen-Schule (Grundschule)",
   "Strasse": "Alfred-Randt-Str. 56",
   "PLZ": 12559,
   "Schulart": "Grundschule",
   "lat": 52.43884,
   "lng": 13.6059,
   "AlleLehrkraefte_2017": 23,
   "AlleQ_2017": "4 %",
   "AlleLehrkraefte_2018": 25,
   "AlleQS_2018": "8 %",
   "Q1_5_2018": "4 %",
   "Q6_x_2018": "",
   "S1_5_2018": "4 %",
   "S6_x_2018": "",
   "Brennpunktschule-2018": ""
 },
 {
   "BSN": "07G27",
   "Schulname": "Rudolf-Hildebrand-Grundschule",
   "Strasse": "Friedenstr. 23-25",
   "PLZ": 12107,
   "Schulart": "Grundschule",
   "lat": 52.43886,
   "lng": 13.3855,
   "AlleLehrkraefte_2017": 31,
   "AlleQ_2017": "3 %",
   "AlleLehrkraefte_2018": 30,
   "AlleQS_2018": "3 %",
   "Q1_5_2018": "3 %",
   "Q6_x_2018": "",
   "S1_5_2018": "",
   "S6_x_2018": "",
   "Brennpunktschule-2018": "x"
 },
 {
   "BSN": "09G18",
   "Schulname": "Schule in der Köllnischen Vorstadt (Grundschule)",
   "Strasse": "Rudower Str. 201",
   "PLZ": 12557,
   "Schulart": "Grundschule",
   "lat": 52.43946,
   "lng": 13.56429,
   "AlleLehrkraefte_2017": 34,
   "AlleQ_2017": "6 %",
   "AlleLehrkraefte_2018": 35,
   "AlleQS_2018": "12 %",
   "Q1_5_2018": "3 %",
   "Q6_x_2018": "",
   "S1_5_2018": "9 %",
   "S6_x_2018": "",
   "Brennpunktschule-2018": "x"
 },
 {
   "BSN": "09G05",
   "Schulname": "Schule am Ginkobaum (Grundschule)",
   "Strasse": "Springbornstr. 250",
   "PLZ": 12487,
   "Schulart": "Grundschule",
   "lat": 52.44014,
   "lng": 13.4979,
   "AlleLehrkraefte_2017": 28,
   "AlleQ_2017": "11 %",
   "AlleLehrkraefte_2018": 33,
   "AlleQS_2018": "9 %",
   "Q1_5_2018": "9 %",
   "Q6_x_2018": "",
   "S1_5_2018": "",
   "S6_x_2018": "",
   "Brennpunktschule-2018": ""
 },
 {
   "BSN": "09K08",
   "Schulname": "Schule an der Dahme (Integrierte Sekundarschule)",
   "Strasse": "Glienicker Str. 24 -30",
   "PLZ": 12557,
   "Schulart": "Integrierte Sekundarschule",
   "lat": 52.44056,
   "lng": 13.56727,
   "AlleLehrkraefte_2017": 39,
   "AlleQ_2017": "0 %",
   "AlleLehrkraefte_2018": null,
   "AlleQS_2018": "",
   "Q1_5_2018": "",
   "Q6_x_2018": "",
   "S1_5_2018": "",
   "S6_x_2018": "",
   "Brennpunktschule-2018": ""
 },
 {
   "BSN": "06G18",
   "Schulname": "Athene-Grundschule",
   "Strasse": "Curtiusstr. 37",
   "PLZ": 12205,
   "Schulart": "Grundschule",
   "lat": 52.440565,
   "lng": 13.290632,
   "AlleLehrkraefte_2017": 37,
   "AlleQ_2017": "8 %",
   "AlleLehrkraefte_2018": 37,
   "AlleQS_2018": "8 %",
   "Q1_5_2018": "5 %",
   "Q6_x_2018": "",
   "S1_5_2018": "3 %",
   "S6_x_2018": "",
   "Brennpunktschule-2018": ""
 },
 {
   "BSN": "08G27",
   "Schulname": "Oskar-Heinroth-Schule (Grundschule)",
   "Strasse": "Rohrdommelweg 1",
   "PLZ": 12359,
   "Schulart": "Grundschule",
   "lat": 52.44057,
   "lng": 13.47209,
   "AlleLehrkraefte_2017": 31,
   "AlleQ_2017": "0 %",
   "AlleLehrkraefte_2018": 36,
   "AlleQS_2018": "8 %",
   "Q1_5_2018": "8 %",
   "Q6_x_2018": "",
   "S1_5_2018": "",
   "S6_x_2018": "",
   "Brennpunktschule-2018": ""
 },
 {
   "BSN": "08G13",
   "Schulname": "Bruno-Taut-Schule (Grundschule)",
   "Strasse": "Bruno-Taut-Ring 9C",
   "PLZ": 12359,
   "Schulart": "Grundschule",
   "lat": 52.44095,
   "lng": 13.44886,
   "AlleLehrkraefte_2017": 30,
   "AlleQ_2017": "7 %",
   "AlleLehrkraefte_2018": 31,
   "AlleQS_2018": "10 %",
   "Q1_5_2018": "10 %",
   "Q6_x_2018": "",
   "S1_5_2018": "",
   "S6_x_2018": "",
   "Brennpunktschule-2018": ""
 },
 {
   "BSN": "06G23",
   "Schulname": "Kronach-Grundschule",
   "Strasse": "Moltkestr. 24-26",
   "PLZ": 12203,
   "Schulart": "Grundschule",
   "lat": 52.44167,
   "lng": 13.313098,
   "AlleLehrkraefte_2017": 33,
   "AlleQ_2017": "0 %",
   "AlleLehrkraefte_2018": null,
   "AlleQS_2018": "",
   "Q1_5_2018": "",
   "Q6_x_2018": "",
   "S1_5_2018": "",
   "S6_x_2018": "",
   "Brennpunktschule-2018": ""
 },
 {
   "BSN": "06B01",
   "Schulname": "Peter-Lenné-Schule (OSZ Natur und Umwelt)",
   "Strasse": "Hartmannsweilerweg 29",
   "PLZ": 14163,
   "Schulart": "",
   "lat": 52.441969,
   "lng": 13.248907,
   "AlleLehrkraefte_2017": 85,
   "AlleQ_2017": "2 %",
   "AlleLehrkraefte_2018": 83,
   "AlleQS_2018": "10 %",
   "Q1_5_2018": "5 %",
   "Q6_x_2018": "",
   "S1_5_2018": "5 %",
   "S6_x_2018": "",
   "Brennpunktschule-2018": ""
 },
 {
   "BSN": "09G19",
   "Schulname": "Amtsfeld-Schule (Grundschule)",
   "Strasse": "Pablo-Neruda-Str. 8",
   "PLZ": 12559,
   "Schulart": "Grundschule",
   "lat": 52.44262,
   "lng": 13.58891,
   "AlleLehrkraefte_2017": 32,
   "AlleQ_2017": "9 %",
   "AlleLehrkraefte_2018": 32,
   "AlleQS_2018": "16 %",
   "Q1_5_2018": "16 %",
   "Q6_x_2018": "",
   "S1_5_2018": "",
   "S6_x_2018": "",
   "Brennpunktschule-2018": ""
 },
 {
   "BSN": "08S08",
   "Schulname": "Schilling-Schule",
   "Strasse": "Paster-Behrens-Str. 81",
   "PLZ": 12359,
   "Schulart": "Übrige Förderschwerpunkte",
   "lat": 52.442637,
   "lng": 13.444198,
   "AlleLehrkraefte_2017": 53,
   "AlleQ_2017": "4 %",
   "AlleLehrkraefte_2018": 53,
   "AlleQS_2018": "4 %",
   "Q1_5_2018": "4 %",
   "Q6_x_2018": "",
   "S1_5_2018": "",
   "S6_x_2018": "",
   "Brennpunktschule-2018": "x"
 },
 {
   "BSN": "09Y11",
   "Schulname": "Emmy-Noether-Gymnasium",
   "Strasse": "Pablo-Neruda-Str. 6-7",
   "PLZ": 12559,
   "Schulart": "Gymnasium",
   "lat": 52.44275,
   "lng": 13.588735,
   "AlleLehrkraefte_2017": 67,
   "AlleQ_2017": "0 %",
   "AlleLehrkraefte_2018": 71,
   "AlleQS_2018": "1 %",
   "Q1_5_2018": "1 %",
   "Q6_x_2018": "",
   "S1_5_2018": "",
   "S6_x_2018": "",
   "Brennpunktschule-2018": ""
 },
 {
   "BSN": "06G06",
   "Schulname": "Mühlenau-Grundschule",
   "Strasse": "Molsheimer Str. 7",
   "PLZ": 14195,
   "Schulart": "Grundschule",
   "lat": 52.443206,
   "lng": 13.276002,
   "AlleLehrkraefte_2017": 50,
   "AlleQ_2017": "4 %",
   "AlleLehrkraefte_2018": 50,
   "AlleQS_2018": "2 %",
   "Q1_5_2018": "2 %",
   "Q6_x_2018": "",
   "S1_5_2018": "",
   "S6_x_2018": "",
   "Brennpunktschule-2018": ""
 },
 {
   "BSN": "06S01",
   "Schulname": "Pestalozzi-Schule",
   "Strasse": "Hartmannsweilerweg 47",
   "PLZ": 14163,
   "Schulart": "Integrierte Sekundarschule",
   "lat": 52.44346,
   "lng": 13.24838,
   "AlleLehrkraefte_2017": 41,
   "AlleQ_2017": "5 %",
   "AlleLehrkraefte_2018": 43,
   "AlleQS_2018": "7 %",
   "Q1_5_2018": "7 %",
   "Q6_x_2018": "",
   "S1_5_2018": "",
   "S6_x_2018": "",
   "Brennpunktschule-2018": ""
 },
 {
   "BSN": "07G31",
   "Schulname": "Carl-Sonnenschein-Grundschule",
   "Strasse": "Am Hellespont 4-6",
   "PLZ": 12109,
   "Schulart": "Grundschule",
   "lat": 52.443699,
   "lng": 13.408152,
   "AlleLehrkraefte_2017": 29,
   "AlleQ_2017": "10 %",
   "AlleLehrkraefte_2018": 32,
   "AlleQS_2018": "13 %",
   "Q1_5_2018": "13 %",
   "Q6_x_2018": "",
   "S1_5_2018": "",
   "S6_x_2018": "",
   "Brennpunktschule-2018": ""
 },
 {
   "BSN": "08B01",
   "Schulname": "Annedore-Leber-Oberschule",
   "Strasse": "Paster-Behrens-Strasse 88",
   "PLZ": 12359,
   "Schulart": "",
   "lat": 52.443799,
   "lng": 13.44428,
   "AlleLehrkraefte_2017": 53,
   "AlleQ_2017": "2 %",
   "AlleLehrkraefte_2018": 57,
   "AlleQS_2018": "6 %",
   "Q1_5_2018": "2 %",
   "Q6_x_2018": "",
   "S1_5_2018": "4 %",
   "S6_x_2018": "",
   "Brennpunktschule-2018": ""
 },
 {
   "BSN": "09K06",
   "Schulname": "Hans-Grade-Schule (Integrierte Sekundarschule)",
   "Strasse": "Heubergerweg 37",
   "PLZ": 12487,
   "Schulart": "Integrierte Sekundarschule",
   "lat": 52.444484,
   "lng": 13.499022,
   "AlleLehrkraefte_2017": 36,
   "AlleQ_2017": "3 %",
   "AlleLehrkraefte_2018": null,
   "AlleQS_2018": "",
   "Q1_5_2018": "",
   "Q6_x_2018": "",
   "S1_5_2018": "",
   "S6_x_2018": "",
   "Brennpunktschule-2018": ""
 },
 {
   "BSN": "07Y07",
   "Schulname": "Eckener-Gymnasium",
   "Strasse": "Kaiserstr. 17-21",
   "PLZ": 12105,
   "Schulart": "Gymnasium",
   "lat": 52.4451,
   "lng": 13.38052,
   "AlleLehrkraefte_2017": 62,
   "AlleQ_2017": "2 %",
   "AlleLehrkraefte_2018": 61,
   "AlleQS_2018": "2 %",
   "Q1_5_2018": "2 %",
   "Q6_x_2018": "",
   "S1_5_2018": "",
   "S6_x_2018": "",
   "Brennpunktschule-2018": ""
 },
 {
   "BSN": "09Y05",
   "Schulname": "Alexander-von-Humboldt-Gymnasium",
   "Strasse": "Oberspreestr. 173",
   "PLZ": 12555,
   "Schulart": "Gymnasium",
   "lat": 52.445252,
   "lng": 13.566972,
   "AlleLehrkraefte_2017": 49,
   "AlleQ_2017": "2 %",
   "AlleLehrkraefte_2018": 47,
   "AlleQS_2018": "4 %",
   "Q1_5_2018": "2 %",
   "Q6_x_2018": "",
   "S1_5_2018": "2 %",
   "S6_x_2018": "",
   "Brennpunktschule-2018": ""
 },
 {
   "BSN": "06G07",
   "Schulname": "Zinnowwald-Grundschule",
   "Strasse": "Wilskistr. 78",
   "PLZ": 14163,
   "Schulart": "Grundschule",
   "lat": 52.44543,
   "lng": 13.246529,
   "AlleLehrkraefte_2017": 33,
   "AlleQ_2017": "9 %",
   "AlleLehrkraefte_2018": null,
   "AlleQS_2018": "",
   "Q1_5_2018": "",
   "Q6_x_2018": "",
   "S1_5_2018": "",
   "S6_x_2018": "",
   "Brennpunktschule-2018": ""
 },
 {
   "BSN": "08Y03",
   "Schulname": "Albert-Einstein-Gymnasium",
   "Strasse": "Parchimer Allee 109",
   "PLZ": 12359,
   "Schulart": "Gymnasium",
   "lat": 52.44553,
   "lng": 13.44245,
   "AlleLehrkraefte_2017": 101,
   "AlleQ_2017": "1 %",
   "AlleLehrkraefte_2018": null,
   "AlleQS_2018": "",
   "Q1_5_2018": "",
   "Q6_x_2018": "",
   "S1_5_2018": "",
   "S6_x_2018": "",
   "Brennpunktschule-2018": ""
 },
 {
   "BSN": "09A07",
   "Schulname": "Flatow-Oberschule",
   "Strasse": "Birkenstraße 11",
   "PLZ": 12559,
   "Schulart": "",
   "lat": 52.446605,
   "lng": 13.602438,
   "AlleLehrkraefte_2017": 39,
   "AlleQ_2017": "0 %",
   "AlleLehrkraefte_2018": 37,
   "AlleQS_2018": "3 %",
   "Q1_5_2018": "",
   "Q6_x_2018": "",
   "S1_5_2018": "3 %",
   "S6_x_2018": "",
   "Brennpunktschule-2018": ""
 },
 {
   "BSN": "07K07",
   "Schulname": "Johanna-Eck-Schule (Integrierte Sekundarschule)",
   "Strasse": "Ringstr. 103-106",
   "PLZ": 12105,
   "Schulart": "Integrierte Sekundarschule",
   "lat": 52.44692,
   "lng": 13.36411,
   "AlleLehrkraefte_2017": 61,
   "AlleQ_2017": "0 %",
   "AlleLehrkraefte_2018": 57,
   "AlleQS_2018": "7 %",
   "Q1_5_2018": "7 %",
   "Q6_x_2018": "",
   "S1_5_2018": "",
   "S6_x_2018": "",
   "Brennpunktschule-2018": "x"
 },
 {
   "BSN": "09G06",
   "Schulname": "Melli-Beese-Schule (Grundschule)",
   "Strasse": "Engelhardstr. 18",
   "PLZ": 12487,
   "Schulart": "Grundschule",
   "lat": 52.44696,
   "lng": 13.51031,
   "AlleLehrkraefte_2017": 23,
   "AlleQ_2017": "13 %",
   "AlleLehrkraefte_2018": 26,
   "AlleQS_2018": "27 %",
   "Q1_5_2018": "",
   "Q6_x_2018": "27 %",
   "S1_5_2018": "",
   "S6_x_2018": "",
   "Brennpunktschule-2018": ""
 },
 {
   "BSN": "07G25",
   "Schulname": "Ludwig-Heck-Grundschule",
   "Strasse": "Königstr. 32",
   "PLZ": 12105,
   "Schulart": "Grundschule",
   "lat": 52.447125,
   "lng": 13.383928,
   "AlleLehrkraefte_2017": 32,
   "AlleQ_2017": "3 %",
   "AlleLehrkraefte_2018": 35,
   "AlleQS_2018": "14 %",
   "Q1_5_2018": "14 %",
   "Q6_x_2018": "",
   "S1_5_2018": "",
   "S6_x_2018": "",
   "Brennpunktschule-2018": "x"
 },
 {
   "BSN": "06G31",
   "Schulname": "Grundschule an der Bäke",
   "Strasse": "Haydnstr. 15",
   "PLZ": 12203,
   "Schulart": "Grundschule",
   "lat": 52.447783,
   "lng": 13.318838,
   "AlleLehrkraefte_2017": 33,
   "AlleQ_2017": "6 %",
   "AlleLehrkraefte_2018": 37,
   "AlleQS_2018": "14 %",
   "Q1_5_2018": "11 %",
   "Q6_x_2018": "",
   "S1_5_2018": "3 %",
   "S6_x_2018": "",
   "Brennpunktschule-2018": ""
 },
 {
   "BSN": "09S04",
   "Schulname": "Ahorn-Schule",
   "Strasse": "Peter-Hille-Str. 118",
   "PLZ": 12587,
   "Schulart": "Übrige Förderschwerpunkte",
   "lat": 52.44782,
   "lng": 13.61966,
   "AlleLehrkraefte_2017": 28,
   "AlleQ_2017": "4 %",
   "AlleLehrkraefte_2018": 28,
   "AlleQS_2018": "8 %",
   "Q1_5_2018": "4 %",
   "Q6_x_2018": "",
   "S1_5_2018": "4 %",
   "S6_x_2018": "",
   "Brennpunktschule-2018": "x"
 },
 {
   "BSN": "09Y10",
   "Schulname": "Gebrüder-Montgolfier-Gymnasium",
   "Strasse": "Ellernweg 20-22",
   "PLZ": 12487,
   "Schulart": "Gymnasium",
   "lat": 52.44833,
   "lng": 13.50379,
   "AlleLehrkraefte_2017": 63,
   "AlleQ_2017": "0 %",
   "AlleLehrkraefte_2018": 69,
   "AlleQS_2018": "2 %",
   "Q1_5_2018": "1 %",
   "Q6_x_2018": "",
   "S1_5_2018": "1 %",
   "S6_x_2018": "",
   "Brennpunktschule-2018": ""
 },
 {
   "BSN": "08K06",
   "Schulname": "Fritz-Karsen-Schule (Gemeinschaftsschule)",
   "Strasse": "Onkel-Bräsig-Str. 76-78",
   "PLZ": 12359,
   "Schulart": "Integrierte Sekundarschule",
   "lat": 52.44865,
   "lng": 13.44389,
   "AlleLehrkraefte_2017": 117,
   "AlleQ_2017": "5 %",
   "AlleLehrkraefte_2018": 125,
   "AlleQS_2018": "9 %",
   "Q1_5_2018": "",
   "Q6_x_2018": "9 %",
   "S1_5_2018": "",
   "S6_x_2018": "",
   "Brennpunktschule-2018": ""
 },
 {
   "BSN": "07G23",
   "Schulname": "Schätzelberg-Grundschule",
   "Strasse": "Wolfsburger Weg 13-19",
   "PLZ": 12109,
   "Schulart": "Grundschule",
   "lat": 52.4487,
   "lng": 13.40066,
   "AlleLehrkraefte_2017": 21,
   "AlleQ_2017": "0 %",
   "AlleLehrkraefte_2018": null,
   "AlleQS_2018": "",
   "Q1_5_2018": "",
   "Q6_x_2018": "",
   "S1_5_2018": "",
   "S6_x_2018": "",
   "Brennpunktschule-2018": ""
 },
 {
   "BSN": "06G32",
   "Schulname": "Grundschule am Stadtpark Steglitz",
   "Strasse": "Karl-Stieler-Str. 10-11",
   "PLZ": 12167,
   "Schulart": "Grundschule",
   "lat": 52.449314,
   "lng": 13.34298,
   "AlleLehrkraefte_2017": 37,
   "AlleQ_2017": "5 %",
   "AlleLehrkraefte_2018": 39,
   "AlleQS_2018": "8 %",
   "Q1_5_2018": "8 %",
   "Q6_x_2018": "",
   "S1_5_2018": "",
   "S6_x_2018": "",
   "Brennpunktschule-2018": ""
 },
 {
   "BSN": "09G24",
   "Schulname": "Müggelsee-Schule (Grundschule)",
   "Strasse": "Aßmannstr. 63",
   "PLZ": 12587,
   "Schulart": "Grundschule",
   "lat": 52.45072,
   "lng": 13.62746,
   "AlleLehrkraefte_2017": 21,
   "AlleQ_2017": "5 %",
   "AlleLehrkraefte_2018": 22,
   "AlleQS_2018": "5 %",
   "Q1_5_2018": "5 %",
   "Q6_x_2018": "",
   "S1_5_2018": "",
   "S6_x_2018": "",
   "Brennpunktschule-2018": ""
 },
 {
   "BSN": "09K05",
   "Schulname": "Wilhelm-Bölsche-Schule (Integrierte Sekundarschule)",
   "Strasse": "Aßmannstr. 11",
   "PLZ": 12587,
   "Schulart": "Integrierte Sekundarschule",
   "lat": 52.45109,
   "lng": 13.61894,
   "AlleLehrkraefte_2017": 43,
   "AlleQ_2017": "2 %",
   "AlleLehrkraefte_2018": 44,
   "AlleQS_2018": "5 %",
   "Q1_5_2018": "5 %",
   "Q6_x_2018": "",
   "S1_5_2018": "",
   "S6_x_2018": "",
   "Brennpunktschule-2018": ""
 },
 {
   "BSN": "09Y03",
   "Schulname": "Archenhold-Gymnasium",
   "Strasse": "Rudower Str. 7",
   "PLZ": 12439,
   "Schulart": "Gymnasium",
   "lat": 52.4514,
   "lng": 13.52271,
   "AlleLehrkraefte_2017": 49,
   "AlleQ_2017": "2 %",
   "AlleLehrkraefte_2018": null,
   "AlleQS_2018": "",
   "Q1_5_2018": "",
   "Q6_x_2018": "",
   "S1_5_2018": "",
   "S6_x_2018": "",
   "Brennpunktschule-2018": ""
 },
 {
   "BSN": "06G17",
   "Schulname": "Grundschule am Insulaner",
   "Strasse": "Hanstedter Weg 11-15",
   "PLZ": 12169,
   "Schulart": "Grundschule",
   "lat": 52.45185,
   "lng": 13.34956,
   "AlleLehrkraefte_2017": 34,
   "AlleQ_2017": "6 %",
   "AlleLehrkraefte_2018": 33,
   "AlleQS_2018": "9 %",
   "Q1_5_2018": "6 %",
   "Q6_x_2018": "",
   "S1_5_2018": "3 %",
   "S6_x_2018": "",
   "Brennpunktschule-2018": ""
 },
 {
   "BSN": "09Y06",
   "Schulname": "Gerhart-Hauptmann-Gymnasium",
   "Strasse": "Bruno-Wille-Str. 37-45",
   "PLZ": 12587,
   "Schulart": "Gymnasium",
   "lat": 52.45227,
   "lng": 13.63269,
   "AlleLehrkraefte_2017": 54,
   "AlleQ_2017": "0 %",
   "AlleLehrkraefte_2018": 55,
   "AlleQS_2018": "2 %",
   "Q1_5_2018": "",
   "Q6_x_2018": "",
   "S1_5_2018": "2 %",
   "S6_x_2018": "",
   "Brennpunktschule-2018": ""
 },
 {
   "BSN": "06K10",
   "Schulname": "Helene-Lange-Schule (Integrierte Sekundarschule)",
   "Strasse": "Lauenburger Str. 110",
   "PLZ": 12169,
   "Schulart": "Integrierte Sekundarschule",
   "lat": 52.4528,
   "lng": 13.33586,
   "AlleLehrkraefte_2017": 51,
   "AlleQ_2017": "0 %",
   "AlleLehrkraefte_2018": null,
   "AlleQS_2018": "",
   "Q1_5_2018": "",
   "Q6_x_2018": "",
   "S1_5_2018": "",
   "S6_x_2018": "",
   "Brennpunktschule-2018": ""
 },
 {
   "BSN": "06Y08",
   "Schulname": "Hermann-Ehlers-Oberschule",
   "Strasse": "Elisenstr. 3-4",
   "PLZ": 12169,
   "Schulart": "Gymnasium",
   "lat": 52.45297,
   "lng": 13.33373,
   "AlleLehrkraefte_2017": 50,
   "AlleQ_2017": "6 %",
   "AlleLehrkraefte_2018": 49,
   "AlleQS_2018": "6 %",
   "Q1_5_2018": "6 %",
   "Q6_x_2018": "",
   "S1_5_2018": "",
   "S6_x_2018": "",
   "Brennpunktschule-2018": ""
 },
 {
   "BSN": "06B04",
   "Schulname": "Wilhelm-Ostwald-Schule (OSZ Gestaltung)",
   "Strasse": "Immenweg 6",
   "PLZ": 12169,
   "Schulart": "",
   "lat": 52.453366,
   "lng": 13.345392,
   "AlleLehrkraefte_2017": 99,
   "AlleQ_2017": "3 %",
   "AlleLehrkraefte_2018": 95,
   "AlleQS_2018": "7 %",
   "Q1_5_2018": "5 %",
   "Q6_x_2018": "",
   "S1_5_2018": "2 %",
   "S6_x_2018": "",
   "Brennpunktschule-2018": ""
 },
 {
   "BSN": "06G16",
   "Schulname": "Rothenburg-Grundschule",
   "Strasse": "Rothenburgstr. 18",
   "PLZ": 12165,
   "Schulart": "Grundschule",
   "lat": 52.454508,
   "lng": 13.313715,
   "AlleLehrkraefte_2017": 21,
   "AlleQ_2017": "5 %",
   "AlleLehrkraefte_2018": 23,
   "AlleQS_2018": "17 %",
   "Q1_5_2018": "17 %",
   "Q6_x_2018": "",
   "S1_5_2018": "",
   "S6_x_2018": "",
   "Brennpunktschule-2018": ""
 },
 {
   "BSN": "06Y09",
   "Schulname": "Fichtenberg-Oberschule",
   "Strasse": "Rothenburgstr. 18",
   "PLZ": 12165,
   "Schulart": "Gymnasium",
   "lat": 52.45398,
   "lng": 13.31302,
   "AlleLehrkraefte_2017": 69,
   "AlleQ_2017": "1 %",
   "AlleLehrkraefte_2018": 73,
   "AlleQS_2018": "2 %",
   "Q1_5_2018": "1 %",
   "Q6_x_2018": "",
   "S1_5_2018": "1 %",
   "S6_x_2018": "",
   "Brennpunktschule-2018": ""
 },
 {
   "BSN": "06G12",
   "Schulname": "Quentin-Blake-Grundschule",
   "Strasse": "Hüttenweg 40",
   "PLZ": 14195,
   "Schulart": "Grundschule",
   "lat": 52.454097,
   "lng": 13.27055,
   "AlleLehrkraefte_2017": 34,
   "AlleQ_2017": "6 %",
   "AlleLehrkraefte_2018": 39,
   "AlleQS_2018": "13 %",
   "Q1_5_2018": "5 %",
   "Q6_x_2018": "",
   "S1_5_2018": "8 %",
   "S6_x_2018": "",
   "Brennpunktschule-2018": ""
 },
 {
   "BSN": "06S02",
   "Schulname": "Biesalski-Schule",
   "Strasse": "Hüttenweg 40",
   "PLZ": 14195,
   "Schulart": "Übrige Förderschwerpunkte",
   "lat": 52.454973,
   "lng": 13.269192,
   "AlleLehrkraefte_2017": 48,
   "AlleQ_2017": "4 %",
   "AlleLehrkraefte_2018": 48,
   "AlleQS_2018": "2 %",
   "Q1_5_2018": "",
   "Q6_x_2018": "",
   "S1_5_2018": "2 %",
   "S6_x_2018": "",
   "Brennpunktschule-2018": ""
 },
 {
   "BSN": "09G07",
   "Schulname": "Schule an der alten Feuerwache (Grundschule)",
   "Strasse": "Schnellerstr. 31",
   "PLZ": 12439,
   "Schulart": "Grundschule",
   "lat": 52.45459,
   "lng": 13.51379,
   "AlleLehrkraefte_2017": 27,
   "AlleQ_2017": "19 %",
   "AlleLehrkraefte_2018": 35,
   "AlleQS_2018": "20 %",
   "Q1_5_2018": "",
   "Q6_x_2018": "17 %",
   "S1_5_2018": "3 %",
   "S6_x_2018": "",
   "Brennpunktschule-2018": ""
 },
 {
   "BSN": "09G27",
   "Schulname": "Friedrichshagener Schule (Grundschule)",
   "Strasse": "Peter-Hille-Str. 7",
   "PLZ": 12587,
   "Schulart": "Grundschule",
   "lat": 52.454606,
   "lng": 13.621399,
   "AlleLehrkraefte_2017": 29,
   "AlleQ_2017": "7 %",
   "AlleLehrkraefte_2018": 29,
   "AlleQS_2018": "10 %",
   "Q1_5_2018": "7 %",
   "Q6_x_2018": "",
   "S1_5_2018": "3 %",
   "S6_x_2018": "",
   "Brennpunktschule-2018": ""
 },
 {
   "BSN": "06K02",
   "Schulname": "Wilma-Rudolph-Schule (Integrierte Sekundarschule)",
   "Strasse": "Am Hegewinkel 2A",
   "PLZ": 14169,
   "Schulart": "Integrierte Sekundarschule",
   "lat": 52.45479,
   "lng": 13.26097,
   "AlleLehrkraefte_2017": 90,
   "AlleQ_2017": "1 %",
   "AlleLehrkraefte_2018": 92,
   "AlleQS_2018": "1 %",
   "Q1_5_2018": "1 %",
   "Q6_x_2018": "",
   "S1_5_2018": "",
   "S6_x_2018": "",
   "Brennpunktschule-2018": ""
 },
 {
   "BSN": "08G19",
   "Schulname": "Herman-Nohl-Schule (Grundschule)",
   "Strasse": "Hannemannstr. 69",
   "PLZ": 12347,
   "Schulart": "Grundschule",
   "lat": 52.455159,
   "lng": 13.43894,
   "AlleLehrkraefte_2017": 49,
   "AlleQ_2017": "14 %",
   "AlleLehrkraefte_2018": 56,
   "AlleQS_2018": "18 %",
   "Q1_5_2018": "",
   "Q6_x_2018": "16 %",
   "S1_5_2018": "2 %",
   "S6_x_2018": "",
   "Brennpunktschule-2018": "x"
 },
 {
   "BSN": "05G19",
   "Schulname": "Grundschule am Ritterfeld",
   "Strasse": "Schallweg 31",
   "PLZ": 14089,
   "Schulart": "Grundschule",
   "lat": 52.455239,
   "lng": 13.138357,
   "AlleLehrkraefte_2017": 31,
   "AlleQ_2017": "3 %",
   "AlleLehrkraefte_2018": 32,
   "AlleQS_2018": "6 %",
   "Q1_5_2018": "6 %",
   "Q6_x_2018": "",
   "S1_5_2018": "",
   "S6_x_2018": "",
   "Brennpunktschule-2018": ""
 },
 {
   "BSN": "06S05",
   "Schulname": "J.-A.-Zeune-Schule für Blinde und Berufsfachschule Dr. Silex",
   "Strasse": "Rothenburgstr. 14",
   "PLZ": 12165,
   "Schulart": "Berufsschule mit sonderpäd. Aufgaben",
   "lat": 52.455569,
   "lng": 13.315047,
   "AlleLehrkraefte_2017": 41,
   "AlleQ_2017": "0 %",
   "AlleLehrkraefte_2018": 44,
   "AlleQS_2018": "2 %",
   "Q1_5_2018": "",
   "Q6_x_2018": "",
   "S1_5_2018": "2 %",
   "S6_x_2018": "",
   "Brennpunktschule-2018": "x"
 },
 {
   "BSN": "09G23",
   "Schulname": "Hauptmann-von-Köpenick-Schule (Grundschule)",
   "Strasse": "Borgmannstr. 2",
   "PLZ": 12555,
   "Schulart": "Grundschule",
   "lat": 52.45624,
   "lng": 13.58095,
   "AlleLehrkraefte_2017": 23,
   "AlleQ_2017": "13 %",
   "AlleLehrkraefte_2018": 24,
   "AlleQS_2018": "8 %",
   "Q1_5_2018": "8 %",
   "Q6_x_2018": "",
   "S1_5_2018": "",
   "S6_x_2018": "",
   "Brennpunktschule-2018": ""
 },
 {
   "BSN": "06Y13",
   "Schulname": "Gymnasium Steglitz",
   "Strasse": "Heesestr. 15",
   "PLZ": 12169,
   "Schulart": "Gymnasium",
   "lat": 52.45671,
   "lng": 13.32644,
   "AlleLehrkraefte_2017": 72,
   "AlleQ_2017": "0 %",
   "AlleLehrkraefte_2018": 72,
   "AlleQS_2018": "2 %",
   "Q1_5_2018": "1 %",
   "Q6_x_2018": "",
   "S1_5_2018": "1 %",
   "S6_x_2018": "",
   "Brennpunktschule-2018": ""
 },
 {
   "BSN": "08B04",
   "Schulname": "OSZ Informations- und Medizintechnik",
   "Strasse": "Haarlemer Str. 23-27",
   "PLZ": 12359,
   "Schulart": "",
   "lat": 52.457838,
   "lng": 13.449527,
   "AlleLehrkraefte_2017": 144,
   "AlleQ_2017": "8 %",
   "AlleLehrkraefte_2018": 135,
   "AlleQS_2018": "9 %",
   "Q1_5_2018": "",
   "Q6_x_2018": "7 %",
   "S1_5_2018": "2 %",
   "S6_x_2018": "",
   "Brennpunktschule-2018": ""
 },
 {
   "BSN": "07G07",
   "Schulname": "Lindenhof-Grundschule",
   "Strasse": "Reglinstr. 29",
   "PLZ": 12105,
   "Schulart": "Grundschule",
   "lat": 52.45809,
   "lng": 13.36325,
   "AlleLehrkraefte_2017": 29,
   "AlleQ_2017": "0 %",
   "AlleLehrkraefte_2018": 29,
   "AlleQS_2018": "3 %",
   "Q1_5_2018": "3 %",
   "Q6_x_2018": "",
   "S1_5_2018": "",
   "S6_x_2018": "",
   "Brennpunktschule-2018": "x"
 },
 {
   "BSN": "08K03",
   "Schulname": "Otto-Hahn-Schule",
   "Strasse": "Buschkrugallee 63",
   "PLZ": 12359,
   "Schulart": "Integrierte Sekundarschule",
   "lat": 52.45809,
   "lng": 13.449,
   "AlleLehrkraefte_2017": 74,
   "AlleQ_2017": "7 %",
   "AlleLehrkraefte_2018": 79,
   "AlleQS_2018": "8 %",
   "Q1_5_2018": "5 %",
   "Q6_x_2018": "",
   "S1_5_2018": "3 %",
   "S6_x_2018": "",
   "Brennpunktschule-2018": "x"
 },
 {
   "BSN": "06G04",
   "Schulname": "Erich-Kästner-Grundschule",
   "Strasse": "Bachstelzenweg 2-8",
   "PLZ": 14195,
   "Schulart": "Grundschule",
   "lat": 52.458141,
   "lng": 13.283199,
   "AlleLehrkraefte_2017": 27,
   "AlleQ_2017": "4 %",
   "AlleLehrkraefte_2018": 29,
   "AlleQS_2018": "7 %",
   "Q1_5_2018": "7 %",
   "Q6_x_2018": "",
   "S1_5_2018": "",
   "S6_x_2018": "",
   "Brennpunktschule-2018": ""
 },
 {
   "BSN": "07G20",
   "Schulname": "Maria-Montessori-Grundschule",
   "Strasse": "Friedrich-Wilhelm-Str. 72-74",
   "PLZ": 12103,
   "Schulart": "Grundschule",
   "lat": 52.45817,
   "lng": 13.38069,
   "AlleLehrkraefte_2017": 36,
   "AlleQ_2017": "8 %",
   "AlleLehrkraefte_2018": 37,
   "AlleQS_2018": "14 %",
   "Q1_5_2018": "14 %",
   "Q6_x_2018": "",
   "S1_5_2018": "",
   "S6_x_2018": "",
   "Brennpunktschule-2018": ""
 },
 {
   "BSN": "06Y03",
   "Schulname": "Arndt-Gymnasium Dahlem",
   "Strasse": "Königin-Luise-Str. 80-84",
   "PLZ": 14195,
   "Schulart": "Gymnasium",
   "lat": 52.45916,
   "lng": 13.28001,
   "AlleLehrkraefte_2017": 64,
   "AlleQ_2017": "0 %",
   "AlleLehrkraefte_2018": 62,
   "AlleQS_2018": "2 %",
   "Q1_5_2018": "",
   "Q6_x_2018": "",
   "S1_5_2018": "2 %",
   "S6_x_2018": "",
   "Brennpunktschule-2018": ""
 },
 {
   "BSN": "08G24",
   "Schulname": "Schule am Teltowkanal (Grundschule)",
   "Strasse": "Rungiusstr. 46",
   "PLZ": 12347,
   "Schulart": "Grundschule",
   "lat": 52.45925,
   "lng": 13.44063,
   "AlleLehrkraefte_2017": 28,
   "AlleQ_2017": "7 %",
   "AlleLehrkraefte_2018": 30,
   "AlleQS_2018": "17 %",
   "Q1_5_2018": "17 %",
   "Q6_x_2018": "",
   "S1_5_2018": "",
   "S6_x_2018": "",
   "Brennpunktschule-2018": "x"
 },
 {
   "BSN": "06K09",
   "Schulname": "Gail-S.-Halvorsen-Integrierte Sekundarschule",
   "Strasse": "Im Gehege 6",
   "PLZ": 14195,
   "Schulart": "Integrierte Sekundarschule",
   "lat": 52.459454,
   "lng": 13.284371,
   "AlleLehrkraefte_2017": 46,
   "AlleQ_2017": "11 %",
   "AlleLehrkraefte_2018": 43,
   "AlleQS_2018": "19 %",
   "Q1_5_2018": "",
   "Q6_x_2018": "19 %",
   "S1_5_2018": "",
   "S6_x_2018": "",
   "Brennpunktschule-2018": ""
 },
 {
   "BSN": "07Y06",
   "Schulname": "Askanisches Gymnasium",
   "Strasse": "Kaiserin-Augusta-Str. 19-20",
   "PLZ": 12103,
   "Schulart": "Gymnasium",
   "lat": 52.45992,
   "lng": 13.37992,
   "AlleLehrkraefte_2017": 52,
   "AlleQ_2017": "0 %",
   "AlleLehrkraefte_2018": null,
   "AlleQS_2018": "",
   "Q1_5_2018": "",
   "Q6_x_2018": "",
   "S1_5_2018": "",
   "S6_x_2018": "",
   "Brennpunktschule-2018": ""
 },
 {
   "BSN": "07G19",
   "Schulname": "Paul-Simmel-Grundschule",
   "Strasse": "Felixstr. 26-58",
   "PLZ": 12099,
   "Schulart": "Grundschule",
   "lat": 52.46137,
   "lng": 13.3926,
   "AlleLehrkraefte_2017": 37,
   "AlleQ_2017": "3 %",
   "AlleLehrkraefte_2018": 38,
   "AlleQS_2018": "5 %",
   "Q1_5_2018": "",
   "Q6_x_2018": "",
   "S1_5_2018": "5 %",
   "S6_x_2018": "",
   "Brennpunktschule-2018": ""
 },
 {
   "BSN": "06G14",
   "Schulname": "Sachsenwald-Grundschule",
   "Strasse": "Sachsenwaldstr. 20-21",
   "PLZ": 12157,
   "Schulart": "Grundschule",
   "lat": 52.46151,
   "lng": 13.3354,
   "AlleLehrkraefte_2017": 34,
   "AlleQ_2017": "3 %",
   "AlleLehrkraefte_2018": 35,
   "AlleQS_2018": "6 %",
   "Q1_5_2018": "3 %",
   "Q6_x_2018": "",
   "S1_5_2018": "3 %",
   "S6_x_2018": "",
   "Brennpunktschule-2018": ""
 },
 {
   "BSN": "09G04",
   "Schulname": "Sonnenblumen-Schule (Grundschule)",
   "Strasse": "Radenzer Str. 16",
   "PLZ": 12437,
   "Schulart": "Grundschule",
   "lat": 52.46163,
   "lng": 13.48872,
   "AlleLehrkraefte_2017": 30,
   "AlleQ_2017": "17 %",
   "AlleLehrkraefte_2018": 28,
   "AlleQS_2018": "21 %",
   "Q1_5_2018": "",
   "Q6_x_2018": "21 %",
   "S1_5_2018": "",
   "S6_x_2018": "",
   "Brennpunktschule-2018": ""
 },
 {
   "BSN": "06Y07",
   "Schulname": "Paulsen-Gymnasium",
   "Strasse": "Gritznerstr. 57",
   "PLZ": 12163,
   "Schulart": "Gymnasium",
   "lat": 52.46219,
   "lng": 13.314388,
   "AlleLehrkraefte_2017": 54,
   "AlleQ_2017": "4 %",
   "AlleLehrkraefte_2018": 54,
   "AlleQS_2018": "6 %",
   "Q1_5_2018": "2 %",
   "Q6_x_2018": "",
   "S1_5_2018": "4 %",
   "S6_x_2018": "",
   "Brennpunktschule-2018": ""
 },
 {
   "BSN": "09G22",
   "Schulname": "Schule an der Wuhlheide (Grundschule)",
   "Strasse": "Kottmeierstr. 2",
   "PLZ": 12459,
   "Schulart": "Grundschule",
   "lat": 52.462579,
   "lng": 13.524106,
   "AlleLehrkraefte_2017": 38,
   "AlleQ_2017": "5 %",
   "AlleLehrkraefte_2018": 42,
   "AlleQS_2018": "12 %",
   "Q1_5_2018": "10 %",
   "Q6_x_2018": "",
   "S1_5_2018": "2 %",
   "S6_x_2018": "",
   "Brennpunktschule-2018": ""
 },
 {
   "BSN": "08G23",
   "Schulname": "Zürich-Schule (Grundschule)",
   "Strasse": "Wederstr. 49",
   "PLZ": 12347,
   "Schulart": "Grundschule",
   "lat": 52.462585,
   "lng": 13.439533,
   "AlleLehrkraefte_2017": 31,
   "AlleQ_2017": "10 %",
   "AlleLehrkraefte_2018": 34,
   "AlleQS_2018": "6 %",
   "Q1_5_2018": "6 %",
   "Q6_x_2018": "",
   "S1_5_2018": "",
   "S6_x_2018": "",
   "Brennpunktschule-2018": "x"
 },
 {
   "BSN": "08G15",
   "Schulname": "Hermann-Sander-Schule (Grundschule)",
   "Strasse": "Mariendorfer Weg 69",
   "PLZ": 12051,
   "Schulart": "Grundschule",
   "lat": 52.46416,
   "lng": 13.43005,
   "AlleLehrkraefte_2017": 42,
   "AlleQ_2017": "2 %",
   "AlleLehrkraefte_2018": null,
   "AlleQS_2018": "",
   "Q1_5_2018": "",
   "Q6_x_2018": "",
   "S1_5_2018": "",
   "S6_x_2018": "",
   "Brennpunktschule-2018": "x"
 },
 {
   "BSN": "06K03",
   "Schulname": "Kopernikus-Schule (Integrierte Sekundarschule)",
   "Strasse": "Lepsiusstr. 24-28",
   "PLZ": 12163,
   "Schulart": "Integrierte Sekundarschule",
   "lat": 52.4643,
   "lng": 13.32069,
   "AlleLehrkraefte_2017": 83,
   "AlleQ_2017": "5 %",
   "AlleLehrkraefte_2018": 83,
   "AlleQS_2018": "4 %",
   "Q1_5_2018": "4 %",
   "Q6_x_2018": "",
   "S1_5_2018": "",
   "S6_x_2018": "",
   "Brennpunktschule-2018": ""
 },
 {
   "BSN": "09K01",
   "Schulname": "Merian-Schule (Integrierte Sekundarschule)",
   "Strasse": "Hoernlestr. 80",
   "PLZ": 12555,
   "Schulart": "Integrierte Sekundarschule",
   "lat": 52.46431,
   "lng": 13.57643,
   "AlleLehrkraefte_2017": 78,
   "AlleQ_2017": "1 %",
   "AlleLehrkraefte_2018": 77,
   "AlleQS_2018": "6 %",
   "Q1_5_2018": "5 %",
   "Q6_x_2018": "",
   "S1_5_2018": "1 %",
   "S6_x_2018": "",
   "Brennpunktschule-2018": ""
 },
 {
   "BSN": "07S04",
   "Schulname": "Marianne-Cohn-Schule",
   "Strasse": "Holzmannstr. 7",
   "PLZ": 12099,
   "Schulart": "Förderschwerp.\"Geistige Entwicklung\"",
   "lat": 52.46433,
   "lng": 13.41815,
   "AlleLehrkraefte_2017": 22,
   "AlleQ_2017": "0 %",
   "AlleLehrkraefte_2018": null,
   "AlleQS_2018": "",
   "Q1_5_2018": "",
   "Q6_x_2018": "",
   "S1_5_2018": "",
   "S6_x_2018": "",
   "Brennpunktschule-2018": "x"
 },
 {
   "BSN": "09A06",
   "Schulname": "Volkshochschule Treptow-Köpenick",
   "Strasse": "Baumschulenstraße 79-81",
   "PLZ": 12437,
   "Schulart": "",
   "lat": 52.464357,
   "lng": 13.485266,
   "AlleLehrkraefte_2017": 6,
   "AlleQ_2017": "0 %",
   "AlleLehrkraefte_2018": null,
   "AlleQS_2018": "",
   "Q1_5_2018": "",
   "Q6_x_2018": "",
   "S1_5_2018": "",
   "S6_x_2018": "",
   "Brennpunktschule-2018": ""
 },
 {
   "BSN": "06G15",
   "Schulname": "Dunant-Grundschule",
   "Strasse": "Gritznerstr. 19-23",
   "PLZ": 12163,
   "Schulart": "Grundschule",
   "lat": 52.46486,
   "lng": 13.31818,
   "AlleLehrkraefte_2017": 36,
   "AlleQ_2017": "0 %",
   "AlleLehrkraefte_2018": 40,
   "AlleQS_2018": "8 %",
   "Q1_5_2018": "8 %",
   "Q6_x_2018": "",
   "S1_5_2018": "",
   "S6_x_2018": "",
   "Brennpunktschule-2018": ""
 },
 {
   "BSN": "07Y05",
   "Schulname": "Luise-Henriette-Gymnasium",
   "Strasse": "Germaniastr. 4-6",
   "PLZ": 12099,
   "Schulart": "Gymnasium",
   "lat": 52.46546,
   "lng": 13.39059,
   "AlleLehrkraefte_2017": 54,
   "AlleQ_2017": "2 %",
   "AlleLehrkraefte_2018": 52,
   "AlleQS_2018": "4 %",
   "Q1_5_2018": "2 %",
   "Q6_x_2018": "",
   "S1_5_2018": "2 %",
   "S6_x_2018": "",
   "Brennpunktschule-2018": ""
 },
 {
   "BSN": "07K13",
   "Schulname": "Schule am Berlinickeplatz (Integrierte Sekundarschule)",
   "Strasse": "Alt-Tempelhof 53-57",
   "PLZ": 12103,
   "Schulart": "Integrierte Sekundarschule",
   "lat": 52.465657,
   "lng": 13.379583,
   "AlleLehrkraefte_2017": 36,
   "AlleQ_2017": "6 %",
   "AlleLehrkraefte_2018": 35,
   "AlleQS_2018": "6 %",
   "Q1_5_2018": "6 %",
   "Q6_x_2018": "",
   "S1_5_2018": "",
   "S6_x_2018": "",
   "Brennpunktschule-2018": "x"
 },
 {
   "BSN": "09K04",
   "Schulname": "Isaac-Newton-Schule (Integrierte Sekundarschule)",
   "Strasse": "Zeppelinstr. 76-80",
   "PLZ": 12459,
   "Schulart": "Integrierte Sekundarschule",
   "lat": 52.4659,
   "lng": 13.51817,
   "AlleLehrkraefte_2017": 34,
   "AlleQ_2017": "0 %",
   "AlleLehrkraefte_2018": 34,
   "AlleQS_2018": "12 %",
   "Q1_5_2018": "9 %",
   "Q6_x_2018": "",
   "S1_5_2018": "3 %",
   "S6_x_2018": "",
   "Brennpunktschule-2018": ""
 },
 {
   "BSN": "09G21",
   "Schulname": "Edison-Grundschule",
   "Strasse": "Wattstr. 69-70",
   "PLZ": 12459,
   "Schulart": "Grundschule",
   "lat": 52.46607,
   "lng": 13.50886,
   "AlleLehrkraefte_2017": 39,
   "AlleQ_2017": "10 %",
   "AlleLehrkraefte_2018": 43,
   "AlleQS_2018": "12 %",
   "Q1_5_2018": "12 %",
   "Q6_x_2018": "",
   "S1_5_2018": "",
   "S6_x_2018": "",
   "Brennpunktschule-2018": ""
 },
 {
   "BSN": "09B03",
   "Schulname": "Hermann-Scheer-Schule (OSZ Wirtschaft)",
   "Strasse": "Helmholtzstraße 37",
   "PLZ": 12459,
   "Schulart": "",
   "lat": 52.466318,
   "lng": 13.50732,
   "AlleLehrkraefte_2017": 83,
   "AlleQ_2017": "4 %",
   "AlleLehrkraefte_2018": 85,
   "AlleQS_2018": "8 %",
   "Q1_5_2018": "6 %",
   "Q6_x_2018": "",
   "S1_5_2018": "2 %",
   "S6_x_2018": "",
   "Brennpunktschule-2018": ""
 },
 {
   "BSN": "08G35",
   "Schulname": "Schule in der Köllnischen Heide (Grundschule)",
   "Strasse": "Hänselstr. 6",
   "PLZ": 12057,
   "Schulart": "Grundschule",
   "lat": 52.4666,
   "lng": 13.4721,
   "AlleLehrkraefte_2017": 48,
   "AlleQ_2017": "6 %",
   "AlleLehrkraefte_2018": 46,
   "AlleQS_2018": "9 %",
   "Q1_5_2018": "7 %",
   "Q6_x_2018": "",
   "S1_5_2018": "2 %",
   "S6_x_2018": "",
   "Brennpunktschule-2018": "x"
 },
 {
   "BSN": "08G21",
   "Schulname": "Silberstein-Schule (Grundschule)",
   "Strasse": "Silbersteinstr. 42",
   "PLZ": 12051,
   "Schulart": "Grundschule",
   "lat": 52.466965,
   "lng": 13.434906,
   "AlleLehrkraefte_2017": 25,
   "AlleQ_2017": "24 %",
   "AlleLehrkraefte_2018": 27,
   "AlleQS_2018": "22 %",
   "Q1_5_2018": "",
   "Q6_x_2018": "22 %",
   "S1_5_2018": "",
   "S6_x_2018": "",
   "Brennpunktschule-2018": "x"
 },
 {
   "BSN": "08K12",
   "Schulname": "Kepler-Schule",
   "Strasse": "Zwillingestr. 21",
   "PLZ": 12057,
   "Schulart": "Integrierte Sekundarschule",
   "lat": 52.46737,
   "lng": 13.46477,
   "AlleLehrkraefte_2017": 38,
   "AlleQ_2017": "8 %",
   "AlleLehrkraefte_2018": 48,
   "AlleQS_2018": "12 %",
   "Q1_5_2018": "8 %",
   "Q6_x_2018": "",
   "S1_5_2018": "4 %",
   "S6_x_2018": "",
   "Brennpunktschule-2018": "x"
 },
 {
   "BSN": "09G17",
   "Schulname": "Uhlenhorst-Grundschule",
   "Strasse": "Wongrowitzer Steig 37",
   "PLZ": 12555,
   "Schulart": "Grundschule",
   "lat": 52.467512,
   "lng": 13.579352,
   "AlleLehrkraefte_2017": 26,
   "AlleQ_2017": "4 %",
   "AlleLehrkraefte_2018": null,
   "AlleQS_2018": "",
   "Q1_5_2018": "",
   "Q6_x_2018": "",
   "S1_5_2018": "",
   "S6_x_2018": "",
   "Brennpunktschule-2018": ""
 },
 {
   "BSN": "09A05",
   "Schulname": "Treptow-Kolleg",
   "Strasse": "Kiefholzstr. 274",
   "PLZ": 12437,
   "Schulart": "Volkshochschul-Kolleg",
   "lat": 52.46818,
   "lng": 13.48463,
   "AlleLehrkraefte_2017": 39,
   "AlleQ_2017": "0 %",
   "AlleLehrkraefte_2018": null,
   "AlleQS_2018": "",
   "Q1_5_2018": "",
   "Q6_x_2018": "",
   "S1_5_2018": "",
   "S6_x_2018": "",
   "Brennpunktschule-2018": ""
 },
 {
   "BSN": "07G15",
   "Schulname": "Fläming-Grundschule",
   "Strasse": "Illstr. 4-6",
   "PLZ": 12161,
   "Schulart": "Grundschule",
   "lat": 52.46839,
   "lng": 13.3329,
   "AlleLehrkraefte_2017": 46,
   "AlleQ_2017": "7 %",
   "AlleLehrkraefte_2018": 48,
   "AlleQS_2018": "4 %",
   "Q1_5_2018": "4 %",
   "Q6_x_2018": "",
   "S1_5_2018": "",
   "S6_x_2018": "",
   "Brennpunktschule-2018": ""
 },
 {
   "BSN": "09G03",
   "Schulname": "Schule am Heidekampgraben (Grundschule)",
   "Strasse": "Hänselstr. 14",
   "PLZ": 12437,
   "Schulart": "Grundschule",
   "lat": 52.46872,
   "lng": 13.47837,
   "AlleLehrkraefte_2017": 25,
   "AlleQ_2017": "16 %",
   "AlleLehrkraefte_2018": 27,
   "AlleQS_2018": "7 %",
   "Q1_5_2018": "7 %",
   "Q6_x_2018": "",
   "S1_5_2018": "",
   "S6_x_2018": "",
   "Brennpunktschule-2018": ""
 },
 {
   "BSN": "07S01",
   "Schulname": "Prignitz-Schule",
   "Strasse": "Pöppelmannstr. 2",
   "PLZ": 12157,
   "Schulart": "Förderschwerp.\"Lernen\"",
   "lat": 52.46884,
   "lng": 13.34519,
   "AlleLehrkraefte_2017": 19,
   "AlleQ_2017": "16 %",
   "AlleLehrkraefte_2018": 26,
   "AlleQS_2018": "15 %",
   "Q1_5_2018": "15 %",
   "Q6_x_2018": "",
   "S1_5_2018": "",
   "S6_x_2018": "",
   "Brennpunktschule-2018": "x"
 },
 {
   "BSN": "07G17",
   "Schulname": "Stechlinsee-Grundschule",
   "Strasse": "Rheingaustr. 7",
   "PLZ": 12161,
   "Schulart": "Grundschule",
   "lat": 52.46934,
   "lng": 13.32242,
   "AlleLehrkraefte_2017": 35,
   "AlleQ_2017": "0 %",
   "AlleLehrkraefte_2018": 41,
   "AlleQS_2018": "2 %",
   "Q1_5_2018": "2 %",
   "Q6_x_2018": "",
   "S1_5_2018": "",
   "S6_x_2018": "",
   "Brennpunktschule-2018": ""
 },
 {
   "BSN": "07Y04",
   "Schulname": "Paul-Natorp-Gymnasium",
   "Strasse": "Goßlerstr. 13-15",
   "PLZ": 12161,
   "Schulart": "Gymnasium",
   "lat": 52.46939,
   "lng": 13.32431,
   "AlleLehrkraefte_2017": 65,
   "AlleQ_2017": "3 %",
   "AlleLehrkraefte_2018": 66,
   "AlleQS_2018": "4 %",
   "Q1_5_2018": "2 %",
   "Q6_x_2018": "",
   "S1_5_2018": "2 %",
   "S6_x_2018": "",
   "Brennpunktschule-2018": ""
 },
 {
   "BSN": "08Y01",
   "Schulname": "Albrecht-Dürer-Gymnasium",
   "Strasse": "Emser Str. 132-137",
   "PLZ": 12051,
   "Schulart": "Gymnasium",
   "lat": 52.46947,
   "lng": 13.43907,
   "AlleLehrkraefte_2017": 48,
   "AlleQ_2017": "0 %",
   "AlleLehrkraefte_2018": null,
   "AlleQS_2018": "",
   "Q1_5_2018": "",
   "Q6_x_2018": "",
   "S1_5_2018": "",
   "S6_x_2018": "",
   "Brennpunktschule-2018": ""
 },
 {
   "BSN": "07K12",
   "Schulname": "Friedenauer Gemeinschaftsschule",
   "Strasse": "Rubensstr. 63",
   "PLZ": 12157,
   "Schulart": "Integrierte Sekundarschule",
   "lat": 52.469784,
   "lng": 13.344068,
   "AlleLehrkraefte_2017": 84,
   "AlleQ_2017": "5 %",
   "AlleLehrkraefte_2018": 91,
   "AlleQS_2018": "8 %",
   "Q1_5_2018": "5 %",
   "Q6_x_2018": "",
   "S1_5_2018": "3 %",
   "S6_x_2018": "",
   "Brennpunktschule-2018": "x"
 },
 {
   "BSN": "07Y03",
   "Schulname": "Rheingau-Gymnasium",
   "Strasse": "Schwalbacher Str. 3-4",
   "PLZ": 12161,
   "Schulart": "Gymnasium",
   "lat": 52.470206,
   "lng": 13.322611,
   "AlleLehrkraefte_2017": 63,
   "AlleQ_2017": "0 %",
   "AlleLehrkraefte_2018": null,
   "AlleQS_2018": "",
   "Q1_5_2018": "",
   "Q6_x_2018": "",
   "S1_5_2018": "",
   "S6_x_2018": "",
   "Brennpunktschule-2018": ""
 },
 {
   "BSN": "04G19",
   "Schulname": "Grundschule am Rüdesheimer Platz",
   "Strasse": "Rüdesheimer Str. 24-30",
   "PLZ": 14197,
   "Schulart": "Grundschule",
   "lat": 52.47113,
   "lng": 13.31312,
   "AlleLehrkraefte_2017": 59,
   "AlleQ_2017": "3 %",
   "AlleLehrkraefte_2018": 58,
   "AlleQS_2018": "10 %",
   "Q1_5_2018": "",
   "Q6_x_2018": "10 %",
   "S1_5_2018": "",
   "S6_x_2018": "",
   "Brennpunktschule-2018": ""
 },
 {
   "BSN": "09S03",
   "Schulname": "Albatros-Schule",
   "Strasse": "Treskowallee 222",
   "PLZ": 12459,
   "Schulart": "Förderschwerp.\"Geistige Entwicklung\"",
   "lat": 52.471245,
   "lng": 13.516154,
   "AlleLehrkraefte_2017": 29,
   "AlleQ_2017": "3 %",
   "AlleLehrkraefte_2018": 31,
   "AlleQS_2018": "13 %",
   "Q1_5_2018": "",
   "Q6_x_2018": "",
   "S1_5_2018": "13 %",
   "S6_x_2018": "",
   "Brennpunktschule-2018": "x"
 },
 {
   "BSN": "08G12",
   "Schulname": "Peter-Petersen-Schule (Grundschule)",
   "Strasse": "Jonasstr. 15",
   "PLZ": 12053,
   "Schulart": "Grundschule",
   "lat": 52.47189,
   "lng": 13.43548,
   "AlleLehrkraefte_2017": 20,
   "AlleQ_2017": "0 %",
   "AlleLehrkraefte_2018": null,
   "AlleQS_2018": "",
   "Q1_5_2018": "",
   "Q6_x_2018": "",
   "S1_5_2018": "",
   "S6_x_2018": "",
   "Brennpunktschule-2018": "x"
 },
 {
   "BSN": "08G20",
   "Schulname": "Sonnen-Schule (Grundschule)",
   "Strasse": "Dammweg 228",
   "PLZ": 12057,
   "Schulart": "Grundschule",
   "lat": 52.47197,
   "lng": 13.46714,
   "AlleLehrkraefte_2017": 31,
   "AlleQ_2017": "16 %",
   "AlleLehrkraefte_2018": 36,
   "AlleQS_2018": "28 %",
   "Q1_5_2018": "",
   "Q6_x_2018": "25 %",
   "S1_5_2018": "3 %",
   "S6_x_2018": "",
   "Brennpunktschule-2018": "x"
 },
 {
   "BSN": "05G29",
   "Schulname": "Mary-Poppins-Grundschule",
   "Strasse": "Am Flugplatz Gatow 20",
   "PLZ": 14089,
   "Schulart": "Grundschule",
   "lat": 52.472209,
   "lng": 13.127426,
   "AlleLehrkraefte_2017": 32,
   "AlleQ_2017": "13 %",
   "AlleLehrkraefte_2018": 33,
   "AlleQS_2018": "9 %",
   "Q1_5_2018": "9 %",
   "Q6_x_2018": "",
   "S1_5_2018": "",
   "S6_x_2018": "",
   "Brennpunktschule-2018": ""
 },
 {
   "BSN": "05Y03",
   "Schulname": "Hans-Carossa-Gymnasium",
   "Strasse": "Am Landschaftspark Gatow 40",
   "PLZ": 14089,
   "Schulart": "Gymnasium",
   "lat": 52.47244,
   "lng": 13.13028,
   "AlleLehrkraefte_2017": 84,
   "AlleQ_2017": "1 %",
   "AlleLehrkraefte_2018": 83,
   "AlleQS_2018": "1 %",
   "Q1_5_2018": "1 %",
   "Q6_x_2018": "",
   "S1_5_2018": "",
   "S6_x_2018": "",
   "Brennpunktschule-2018": ""
 },
 {
   "BSN": "08G36",
   "Schulname": "Löwenzahn-Schule (Grundschule)",
   "Strasse": "Drorystr. 3",
   "PLZ": 12055,
   "Schulart": "Grundschule",
   "lat": 52.472499,
   "lng": 13.448771,
   "AlleLehrkraefte_2017": 28,
   "AlleQ_2017": "11 %",
   "AlleLehrkraefte_2018": 28,
   "AlleQS_2018": "18 %",
   "Q1_5_2018": "18 %",
   "Q6_x_2018": "",
   "S1_5_2018": "",
   "S6_x_2018": "",
   "Brennpunktschule-2018": "x"
 },
 {
   "BSN": "08G14",
   "Schulname": "Konrad-Agahd-Schule (Grundschule)",
   "Strasse": "Thomasstr. 39",
   "PLZ": 12053,
   "Schulart": "Grundschule",
   "lat": 52.4725,
   "lng": 13.43556,
   "AlleLehrkraefte_2017": 28,
   "AlleQ_2017": "18 %",
   "AlleLehrkraefte_2018": 25,
   "AlleQS_2018": "8 %",
   "Q1_5_2018": "8 %",
   "Q6_x_2018": "",
   "S1_5_2018": "",
   "S6_x_2018": "",
   "Brennpunktschule-2018": "x"
 },
 {
   "BSN": "08B05",
   "Schulname": "Carl-Legien-Schule",
   "Strasse": "Leinestraße 37",
   "PLZ": 12049,
   "Schulart": "",
   "lat": 52.472605,
   "lng": 13.42424,
   "AlleLehrkraefte_2017": 32,
   "AlleQ_2017": "0 %",
   "AlleLehrkraefte_2018": 32,
   "AlleQS_2018": "26 %",
   "Q1_5_2018": "13 %",
   "Q6_x_2018": "",
   "S1_5_2018": "13 %",
   "S6_x_2018": "",
   "Brennpunktschule-2018": ""
 },
 {
   "BSN": "09S06",
   "Schulname": "Schule am Wildgarten",
   "Strasse": "Köpenicker Landstr. 185A",
   "PLZ": 12437,
   "Schulart": "Grundschule",
   "lat": 52.473436,
   "lng": 13.48707,
   "AlleLehrkraefte_2017": 30,
   "AlleQ_2017": "0 %",
   "AlleLehrkraefte_2018": 34,
   "AlleQS_2018": "9 %",
   "Q1_5_2018": "6 %",
   "Q6_x_2018": "",
   "S1_5_2018": "3 %",
   "S6_x_2018": "",
   "Brennpunktschule-2018": "x"
 },
 {
   "BSN": "08G17",
   "Schulname": "Richard-Schule (Grundschule)",
   "Strasse": "Richardplatz 14",
   "PLZ": 12055,
   "Schulart": "Grundschule",
   "lat": 52.47359,
   "lng": 13.44439,
   "AlleLehrkraefte_2017": 31,
   "AlleQ_2017": "6 %",
   "AlleLehrkraefte_2018": 35,
   "AlleQS_2018": "14 %",
   "Q1_5_2018": "11 %",
   "Q6_x_2018": "",
   "S1_5_2018": "3 %",
   "S6_x_2018": "",
   "Brennpunktschule-2018": "x"
 },
 {
   "BSN": "04G27",
   "Schulname": "Judith-Kerr-Grundschule",
   "Strasse": "Friedrichshaller Straße 13",
   "PLZ": 14199,
   "Schulart": "",
   "lat": 52.475278,
   "lng": 13.294929,
   "AlleLehrkraefte_2017": 33,
   "AlleQ_2017": "3 %",
   "AlleLehrkraefte_2018": 32,
   "AlleQS_2018": "12 %",
   "Q1_5_2018": "3 %",
   "Q6_x_2018": "",
   "S1_5_2018": "9 %",
   "S6_x_2018": "",
   "Brennpunktschule-2018": ""
 },
 {
   "BSN": "07G16",
   "Schulname": "Ruppin-Grundschule",
   "Strasse": "Offenbacher Str. 5A",
   "PLZ": 14197,
   "Schulart": "Grundschule",
   "lat": 52.47538,
   "lng": 13.32137,
   "AlleLehrkraefte_2017": 41,
   "AlleQ_2017": "5 %",
   "AlleLehrkraefte_2018": 42,
   "AlleQS_2018": "7 %",
   "Q1_5_2018": "7 %",
   "Q6_x_2018": "",
   "S1_5_2018": "",
   "S6_x_2018": "",
   "Brennpunktschule-2018": ""
 },
 {
   "BSN": "08S01",
   "Schulname": "Adolf-Reichwein-Schule",
   "Strasse": "Sonnenallee 188",
   "PLZ": 12059,
   "Schulart": "Förderschwerp.\"Lernen\"",
   "lat": 52.475733,
   "lng": 13.450826,
   "AlleLehrkraefte_2017": 30,
   "AlleQ_2017": "3 %",
   "AlleLehrkraefte_2018": 31,
   "AlleQS_2018": "3 %",
   "Q1_5_2018": "3 %",
   "Q6_x_2018": "",
   "S1_5_2018": "",
   "S6_x_2018": "",
   "Brennpunktschule-2018": "x"
 },
 {
   "BSN": "08G09",
   "Schulname": "Regenbogen-Schule (Grundschule)",
   "Strasse": "Morusstr. 32",
   "PLZ": 12053,
   "Schulart": "Grundschule",
   "lat": 52.47578,
   "lng": 13.43333,
   "AlleLehrkraefte_2017": 43,
   "AlleQ_2017": "2 %",
   "AlleLehrkraefte_2018": 44,
   "AlleQS_2018": "5 %",
   "Q1_5_2018": "5 %",
   "Q6_x_2018": "",
   "S1_5_2018": "",
   "S6_x_2018": "",
   "Brennpunktschule-2018": "x"
 },
 {
   "BSN": "08K10",
   "Schulname": "Zuckmayer-Schule",
   "Strasse": "Kopfstr. 55",
   "PLZ": 12053,
   "Schulart": "Integrierte Sekundarschule",
   "lat": 52.4761,
   "lng": 13.43129,
   "AlleLehrkraefte_2017": 40,
   "AlleQ_2017": "10 %",
   "AlleLehrkraefte_2018": 44,
   "AlleQS_2018": "7 %",
   "Q1_5_2018": "5 %",
   "Q6_x_2018": "",
   "S1_5_2018": "2 %",
   "S6_x_2018": "",
   "Brennpunktschule-2018": "x"
 },
 {
   "BSN": "07K10",
   "Schulname": "Friedrich-Bergius-Schule",
   "Strasse": "Perelsplatz 6-9",
   "PLZ": 12159,
   "Schulart": "Integrierte Sekundarschule",
   "lat": 52.47618,
   "lng": 13.33314,
   "AlleLehrkraefte_2017": 39,
   "AlleQ_2017": "0 %",
   "AlleLehrkraefte_2018": null,
   "AlleQS_2018": "",
   "Q1_5_2018": "",
   "Q6_x_2018": "",
   "S1_5_2018": "",
   "S6_x_2018": "",
   "Brennpunktschule-2018": "x"
 },
 {
   "BSN": "08G06",
   "Schulname": "Karl-Weise-Schule (Grundschule)",
   "Strasse": "Weisestr. 20",
   "PLZ": 12049,
   "Schulart": "Grundschule",
   "lat": 52.476503,
   "lng": 13.423961,
   "AlleLehrkraefte_2017": 24,
   "AlleQ_2017": "8 %",
   "AlleLehrkraefte_2018": 27,
   "AlleQS_2018": "19 %",
   "Q1_5_2018": "19 %",
   "Q6_x_2018": "",
   "S1_5_2018": "",
   "S6_x_2018": "",
   "Brennpunktschule-2018": "x"
 },
 {
   "BSN": "04G23",
   "Schulname": "Alt-Schmargendorf-Grundschule",
   "Strasse": "Reichenhaller Str. 8",
   "PLZ": 14199,
   "Schulart": "Grundschule",
   "lat": 52.477085,
   "lng": 13.293432,
   "AlleLehrkraefte_2017": 33,
   "AlleQ_2017": "0 %",
   "AlleLehrkraefte_2018": 36,
   "AlleQS_2018": "6 %",
   "Q1_5_2018": "3 %",
   "Q6_x_2018": "",
   "S1_5_2018": "3 %",
   "S6_x_2018": "",
   "Brennpunktschule-2018": ""
 },
 {
   "BSN": "08G18",
   "Schulname": "Eduard-Mörike-Schule (Grundschule)",
   "Strasse": "Stuttgarter Str. 35-39",
   "PLZ": 12059,
   "Schulart": "Grundschule",
   "lat": 52.477969,
   "lng": 13.450143,
   "AlleLehrkraefte_2017": 35,
   "AlleQ_2017": "29 %",
   "AlleLehrkraefte_2018": 35,
   "AlleQS_2018": "26 %",
   "Q1_5_2018": "",
   "Q6_x_2018": "26 %",
   "S1_5_2018": "",
   "S6_x_2018": "",
   "Brennpunktschule-2018": "x"
 },
 {
   "BSN": "04G24",
   "Schulname": "Carl-Orff-Grundschule",
   "Strasse": "Berkaer Str. 9-10",
   "PLZ": 14199,
   "Schulart": "Grundschule",
   "lat": 52.47841,
   "lng": 13.28709,
   "AlleLehrkraefte_2017": 35,
   "AlleQ_2017": "0 %",
   "AlleLehrkraefte_2018": null,
   "AlleQS_2018": "",
   "Q1_5_2018": "",
   "Q6_x_2018": "",
   "S1_5_2018": "",
   "S6_x_2018": "",
   "Brennpunktschule-2018": ""
 },
 {
   "BSN": "07K11",
   "Schulname": "Hugo-Gaudig-Schule",
   "Strasse": "Boelckestraße 58-60",
   "PLZ": 12101,
   "Schulart": "",
   "lat": 52.478586,
   "lng": 13.376498,
   "AlleLehrkraefte_2017": 45,
   "AlleQ_2017": "4 %",
   "AlleLehrkraefte_2018": 50,
   "AlleQS_2018": "10 %",
   "Q1_5_2018": "6 %",
   "Q6_x_2018": "",
   "S1_5_2018": "4 %",
   "S6_x_2018": "",
   "Brennpunktschule-2018": "x"
 },
 {
   "BSN": "07G24",
   "Schulname": "Tempelherren-Grundschule",
   "Strasse": "Boelckestr. 58-60",
   "PLZ": 12101,
   "Schulart": "Grundschule",
   "lat": 52.478603,
   "lng": 13.37647,
   "AlleLehrkraefte_2017": 25,
   "AlleQ_2017": "16 %",
   "AlleLehrkraefte_2018": 23,
   "AlleQS_2018": "13 %",
   "Q1_5_2018": "13 %",
   "Q6_x_2018": "",
   "S1_5_2018": "",
   "S6_x_2018": "",
   "Brennpunktschule-2018": "x"
 },
 {
   "BSN": "11G14",
   "Schulname": "Richard-Wagner-Grundschule",
   "Strasse": "Ehrenfelsstr. 36",
   "PLZ": 10318,
   "Schulart": "Grundschule",
   "lat": 52.479326,
   "lng": 13.53427,
   "AlleLehrkraefte_2017": 40,
   "AlleQ_2017": "5 %",
   "AlleLehrkraefte_2018": 37,
   "AlleQS_2018": "3 %",
   "Q1_5_2018": "",
   "Q6_x_2018": "",
   "S1_5_2018": "3 %",
   "S6_x_2018": "",
   "Brennpunktschule-2018": ""
 },
 {
   "BSN": "04Y10",
   "Schulname": "Marie-Curie-Gymnasium",
   "Strasse": "Weimarische Str. 21",
   "PLZ": 10715,
   "Schulart": "Gymnasium",
   "lat": 52.480119,
   "lng": 13.324748,
   "AlleLehrkraefte_2017": 61,
   "AlleQ_2017": "0 %",
   "AlleLehrkraefte_2018": 61,
   "AlleQS_2018": "2 %",
   "Q1_5_2018": "2 %",
   "Q6_x_2018": "",
   "S1_5_2018": "",
   "S6_x_2018": "",
   "Brennpunktschule-2018": ""
 },
 {
   "BSN": "08G07",
   "Schulname": "Hermann-Boddin-Schule (Grundschule)",
   "Strasse": "Boddinstr. 55",
   "PLZ": 12053,
   "Schulart": "Grundschule",
   "lat": 52.480416,
   "lng": 13.431252,
   "AlleLehrkraefte_2017": 29,
   "AlleQ_2017": "7 %",
   "AlleLehrkraefte_2018": 26,
   "AlleQS_2018": "16 %",
   "Q1_5_2018": "8 %",
   "Q6_x_2018": "",
   "S1_5_2018": "8 %",
   "S6_x_2018": "",
   "Brennpunktschule-2018": "x"
 },
 {
   "BSN": "07G06",
   "Schulname": "Sternberg-Grundschule",
   "Strasse": "Mettestr. 8",
   "PLZ": 10825,
   "Schulart": "Grundschule",
   "lat": 52.48047,
   "lng": 13.33924,
   "AlleLehrkraefte_2017": 25,
   "AlleQ_2017": "4 %",
   "AlleLehrkraefte_2018": 23,
   "AlleQS_2018": "13 %",
   "Q1_5_2018": "9 %",
   "Q6_x_2018": "",
   "S1_5_2018": "4 %",
   "S6_x_2018": "",
   "Brennpunktschule-2018": "x"
 },
 {
   "BSN": "07Y02",
   "Schulname": "Rückert-Gymnasium",
   "Strasse": "Mettestr. 8",
   "PLZ": 10825,
   "Schulart": "Gymnasium",
   "lat": 52.480979,
   "lng": 13.339718,
   "AlleLehrkraefte_2017": 57,
   "AlleQ_2017": "0 %",
   "AlleLehrkraefte_2018": 56,
   "AlleQS_2018": "2 %",
   "Q1_5_2018": "2 %",
   "Q6_x_2018": "",
   "S1_5_2018": "",
   "S6_x_2018": "",
   "Brennpunktschule-2018": ""
 },
 {
   "BSN": "04G26",
   "Schulname": "Birger-Forell-Grundschule",
   "Strasse": "Koblenzer Str. 22-24",
   "PLZ": 10715,
   "Schulart": "Grundschule",
   "lat": 52.480726,
   "lng": 13.321893,
   "AlleLehrkraefte_2017": 28,
   "AlleQ_2017": "4 %",
   "AlleLehrkraefte_2018": 29,
   "AlleQS_2018": "3 %",
   "Q1_5_2018": "3 %",
   "Q6_x_2018": "",
   "S1_5_2018": "",
   "S6_x_2018": "",
   "Brennpunktschule-2018": ""
 },
 {
   "BSN": "07G21",
   "Schulname": "Grundschule auf dem Tempelhofer Feld",
   "Strasse": "Schulenburgring 7-11",
   "PLZ": 12101,
   "Schulart": "Grundschule",
   "lat": 52.48081,
   "lng": 13.38185,
   "AlleLehrkraefte_2017": 36,
   "AlleQ_2017": "6 %",
   "AlleLehrkraefte_2018": 37,
   "AlleQS_2018": "5 %",
   "Q1_5_2018": "5 %",
   "Q6_x_2018": "",
   "S1_5_2018": "",
   "S6_x_2018": "",
   "Brennpunktschule-2018": ""
 },
 {
   "BSN": "09K07",
   "Schulname": "Sophie-Brahe-Schule (Gemeinschaftsschule)",
   "Strasse": "Am Plänterwald 17-23",
   "PLZ": 12435,
   "Schulart": "Integrierte Sekundarschule",
   "lat": 52.48171,
   "lng": 13.47804,
   "AlleLehrkraefte_2017": 66,
   "AlleQ_2017": "5 %",
   "AlleLehrkraefte_2018": 67,
   "AlleQS_2018": "1 %",
   "Q1_5_2018": "1 %",
   "Q6_x_2018": "",
   "S1_5_2018": "",
   "S6_x_2018": "",
   "Brennpunktschule-2018": ""
 },
 {
   "BSN": "04B08",
   "Schulname": "Kläre-Bloch-Schule",
   "Strasse": "Prinzregentenstraße 60",
   "PLZ": 10715,
   "Schulart": "",
   "lat": 52.481962,
   "lng": 13.333151,
   "AlleLehrkraefte_2017": 22,
   "AlleQ_2017": "0 %",
   "AlleLehrkraefte_2018": 22,
   "AlleQS_2018": "5 %",
   "Q1_5_2018": "",
   "Q6_x_2018": "",
   "S1_5_2018": "5 %",
   "S6_x_2018": "",
   "Brennpunktschule-2018": ""
 },
 {
   "BSN": "08G08",
   "Schulname": "Karlsgarten-Schule (Grundschule)",
   "Strasse": "Karlsgartenstr. 7",
   "PLZ": 12049,
   "Schulart": "Grundschule",
   "lat": 52.482099,
   "lng": 13.422505,
   "AlleLehrkraefte_2017": 39,
   "AlleQ_2017": "5 %",
   "AlleLehrkraefte_2018": 39,
   "AlleQS_2018": "8 %",
   "Q1_5_2018": "8 %",
   "Q6_x_2018": "",
   "S1_5_2018": "",
   "S6_x_2018": "",
   "Brennpunktschule-2018": "x"
 },
 {
   "BSN": "04K07",
   "Schulname": "Integrierte Sekundarschule Wilmersdorf",
   "Strasse": "Kranzer Str. 3",
   "PLZ": 14199,
   "Schulart": "Integrierte Sekundarschule",
   "lat": 52.482808,
   "lng": 13.296098,
   "AlleLehrkraefte_2017": 35,
   "AlleQ_2017": "6 %",
   "AlleLehrkraefte_2018": null,
   "AlleQS_2018": "",
   "Q1_5_2018": "",
   "Q6_x_2018": "",
   "S1_5_2018": "",
   "S6_x_2018": "",
   "Brennpunktschule-2018": ""
 },
 {
   "BSN": "04G18",
   "Schulname": "Ernst-Habermann-Grundschule",
   "Strasse": "Prinzregentenstr. 33-34",
   "PLZ": 10715,
   "Schulart": "Grundschule",
   "lat": 52.48328,
   "lng": 13.33269,
   "AlleLehrkraefte_2017": 20,
   "AlleQ_2017": "0 %",
   "AlleLehrkraefte_2018": null,
   "AlleQS_2018": "",
   "Q1_5_2018": "",
   "Q6_x_2018": "",
   "S1_5_2018": "",
   "S6_x_2018": "",
   "Brennpunktschule-2018": ""
 },
 {
   "BSN": "08Y04",
   "Schulname": "Ernst-Abbe-Gymnasium",
   "Strasse": "Sonnenallee 79",
   "PLZ": 12045,
   "Schulart": "Gymnasium",
   "lat": 52.48349,
   "lng": 13.43711,
   "AlleLehrkraefte_2017": 47,
   "AlleQ_2017": "4 %",
   "AlleLehrkraefte_2018": 49,
   "AlleQS_2018": "6 %",
   "Q1_5_2018": "6 %",
   "Q6_x_2018": "",
   "S1_5_2018": "",
   "S6_x_2018": "",
   "Brennpunktschule-2018": "x"
 },
 {
   "BSN": "04B06",
   "Schulname": "Leopold-Ullstein-Schule (OSZ Wirtschaft)",
   "Strasse": "Prinzregentenstraße 32",
   "PLZ": 10715,
   "Schulart": "",
   "lat": 52.483494,
   "lng": 13.332888,
   "AlleLehrkraefte_2017": 63,
   "AlleQ_2017": "2 %",
   "AlleLehrkraefte_2018": 63,
   "AlleQS_2018": "5 %",
   "Q1_5_2018": "2 %",
   "Q6_x_2018": "",
   "S1_5_2018": "3 %",
   "S6_x_2018": "",
   "Brennpunktschule-2018": ""
 },
 {
   "BSN": "08G03",
   "Schulname": "Hans-Fallada-Schule (Grundschule)",
   "Strasse": "Harzer Str. 73",
   "PLZ": 12059,
   "Schulart": "Grundschule",
   "lat": 52.483564,
   "lng": 13.451851,
   "AlleLehrkraefte_2017": 40,
   "AlleQ_2017": "3 %",
   "AlleLehrkraefte_2018": 39,
   "AlleQS_2018": "11 %",
   "Q1_5_2018": "8 %",
   "Q6_x_2018": "",
   "S1_5_2018": "3 %",
   "S6_x_2018": "",
   "Brennpunktschule-2018": "x"
 },
 {
   "BSN": "08S06",
   "Schulname": "Hans-Fallada-Schule",
   "Strasse": "Harzer Str. 73-74",
   "PLZ": 12059,
   "Schulart": "Förderschwerp.\"Lernen\"",
   "lat": 52.484204,
   "lng": 13.453927,
   "AlleLehrkraefte_2017": 22,
   "AlleQ_2017": "0 %",
   "AlleLehrkraefte_2018": null,
   "AlleQS_2018": "",
   "Q1_5_2018": "",
   "Q6_x_2018": "",
   "S1_5_2018": "",
   "S6_x_2018": "",
   "Brennpunktschule-2018": "x"
 },